City_ID,City,Lat,Lng,Max Temp,Humidity,Cloudiness,Wind Speed,Country,Date
0,port augusta,-32.5,137.7667,291.41,43,40,2.91,AU,1681150744
1,mattru,7.6244,-11.8332,300.71,80,96,2.29,SL,1681150744
2,bracebridge,45.0334,-79.3163,290.42,29,0,4.12,CA,1681150624
3,ushuaia,-54.8,-68.3,279.96,65,75,2.57,AR,1681150495
4,crixas,-14.5489,-49.9692,299.51,73,99,1.16,BR,1681150745
5,dikson,73.5069,80.5464,248.22,100,98,3.6,RU,1681150746
6,bluff,-46.6,168.3333,284.71,98,100,6.5,NZ,1681150746
7,mahebourg,-20.4081,57.7,298.29,100,75,2.57,MU,1681150747
8,iquitos,-3.7481,-73.2472,302.17,84,75,1.54,PE,1681150544
9,ponferrada,42.5466,-6.5962,292.29,51,89,4.92,ES,1681150748
10,hilo,19.7297,-155.09,297.66,73,40,2.06,US,1681150748
11,ilulissat,69.2167,-51.1,275.3,87,96,2.68,GL,1681150750
12,busselton,-33.65,115.3333,289.32,68,65,5.63,AU,1681150751
13,qaanaaq,77.484,-69.3632,252.55,78,0,0.3,GL,1681150751
14,rikitea,-23.1203,-134.9692,297.71,70,26,3.67,PF,1681150752
15,barrow,71.2906,-156.7887,255.16,78,100,3.6,US,1681150753
16,puerto ayora,-0.7393,-90.3518,304.13,82,29,2.68,EC,1681150753
17,salalah,17.0151,54.0924,301.2,78,40,2.06,OM,1681150754
18,souillac,-20.5167,57.5167,297.36,100,75,2.57,MU,1681150754
19,chodavaram,17.8333,82.95,300.06,61,53,1.4,IN,1681150755
20,brae,60.3964,-1.353,280.45,85,81,5.44,GB,1681150756
21,manta,-0.95,-80.7333,303.03,66,75,1.54,EC,1681150756
22,jamestown,42.097,-79.2353,291.51,19,0,1.34,US,1681150756
23,nome,64.5011,-165.4064,244.19,76,0,0.0,US,1681150575
24,east london,-33.0153,27.9116,288.67,67,0,7.72,ZA,1681150757
25,mataura,-46.1927,168.8643,284.53,99,100,0.77,NZ,1681150758
26,kapaa,22.0752,-159.319,297.14,83,40,8.23,US,1681150758
27,amazar,53.858,120.875,270.8,97,100,3.14,RU,1681150760
28,pisco,-13.7,-76.2167,300.18,65,0,4.63,PE,1681150760
29,atuona,-9.8,-139.0333,300.14,80,26,7.62,PF,1681150523
30,norman wells,65.282,-126.8329,269.17,86,100,9.26,CA,1681150761
31,georgetown,5.4112,100.3354,301.11,84,20,1.54,MY,1681150499
32,thompson,55.7435,-97.8558,284.24,40,75,3.09,CA,1681150755
33,san patricio,28.017,-97.5169,298.09,71,97,3.64,US,1681150762
34,poum,-20.2333,164.0167,299.51,68,0,0.76,NC,1681150763
35,mangrol,21.1167,70.1167,298.87,67,89,4.4,IN,1681150764
36,hobart,-42.8794,147.3294,284.96,90,100,4.63,AU,1681150764
37,novo aripuana,-5.1206,-60.3797,303.45,69,100,0.87,BR,1681150764
38,hermanus,-34.4187,19.2345,288.6,65,93,4.72,ZA,1681150765
39,victor harbor,-35.5667,138.6167,284.64,88,77,4.05,AU,1681150765
40,yinchuan,38.4681,106.2731,282.85,12,60,3.86,CN,1681150766
41,aklavik,68.2191,-135.0107,260.15,72,100,6.69,CA,1681150766
42,yellowknife,62.456,-114.3525,272.44,86,100,7.72,CA,1681150507
43,faya,18.3851,42.4509,291.21,48,0,3.71,SA,1681150767
44,lebu,-37.6167,-73.65,291.14,85,100,2.7,CL,1681150768
45,muscat,23.6139,58.5922,300.16,53,59,2.11,OM,1681150769
46,faanui,-16.4833,-151.75,300.59,74,100,5.33,PF,1681150769
47,punta arenas,-53.15,-70.9167,281.21,61,75,8.23,CL,1681150685
48,bredasdorp,-34.5322,20.0403,288.06,64,85,5.2,ZA,1681150770
49,chuy,-33.6971,-53.4616,298.37,55,5,4.02,UY,1681150771
50,saint george,37.1041,-113.5841,296.72,23,0,0.89,US,1681150611
51,kidal,18.4411,1.4078,306.28,11,100,7.35,ML,1681150772
52,esperance,-33.8667,121.9,290.92,71,55,7.03,AU,1681150772
53,aldan,58.6031,125.3894,261.8,96,100,2.36,RU,1681150773
54,talara,-4.5772,-81.2719,301.57,83,40,5.14,PE,1681150774
55,lewistown,40.5992,-77.5714,293.7,57,0,4.12,US,1681150774
56,kelvington,52.1667,-103.5343,275.83,100,64,6.09,CA,1681150775
57,saint-francois,46.4154,3.9054,288.84,62,0,2.57,FR,1681150776
58,dunedin,-45.8742,170.5036,286.45,98,100,1.8,NZ,1681150776
59,butaritari,3.0707,172.7902,300.23,82,86,5.5,KI,1681150777
60,korla,41.7597,86.1469,287.6,22,95,2.11,CN,1681150777
61,inuvik,68.3499,-133.7218,259.63,85,100,5.66,CA,1681150777
62,marrakesh,31.6315,-8.0083,303.19,19,40,4.63,MA,1681150504
63,oranjestad,12.524,-70.027,303.12,70,75,9.77,AW,1681150778
64,honiara,-9.4333,159.95,298.32,88,99,1.72,SB,1681150778
65,ballina,-28.8667,153.5667,285.25,73,1,3.37,AU,1681150779
66,sao joao da barra,-21.6403,-41.0511,300.2,63,70,6.97,BR,1681150779
67,saskylakh,71.9167,114.0833,247.33,99,73,3.26,RU,1681150779
68,severo-kurilsk,50.6789,156.125,271.87,93,100,19.17,RU,1681150780
69,cherskiy,68.75,161.3,245.04,88,1,1.85,RU,1681150780
70,salinas,36.6777,-121.6555,297.6,61,0,3.6,US,1681150780
71,pacific grove,36.6177,-121.9166,295.59,82,0,3.6,US,1681150780
72,kodiak,57.79,-152.4072,271.88,43,0,8.23,US,1681150766
73,cape town,-33.9258,18.4232,291.69,56,40,3.09,ZA,1681150624
74,cidreira,-30.1811,-50.2056,297.25,73,71,2.41,BR,1681150781
75,portland,45.5234,-122.6762,283.06,94,100,2.06,US,1681150626
76,arraial do cabo,-22.9661,-42.0278,299.13,65,0,6.69,BR,1681150782
77,auki,-8.7676,160.7034,298.19,86,100,1.76,SB,1681150523
78,port hedland,-20.3167,118.5667,298.18,53,100,4.12,AU,1681150783
79,sitka,57.0531,-135.33,277.09,65,40,3.6,US,1681150783
80,darhan,49.4867,105.9228,266.43,47,13,1.64,MN,1681150783
81,ketchikan,55.3422,-131.6461,279.14,87,75,3.09,US,1681150549
82,lompoc,34.6391,-120.4579,297.98,77,75,4.12,US,1681150784
83,belaya glina,46.07,40.86,285.87,58,100,8.48,RU,1681150785
84,tuktoyaktuk,69.4541,-133.0374,258.15,85,75,2.57,CA,1681150785
85,castro,-24.7911,-50.0119,296.0,59,43,1.46,BR,1681150785
86,albany,42.6001,-73.9662,290.94,22,19,1.34,US,1681150505
87,cao bang,22.6667,106.25,293.3,99,99,0.93,VN,1681150520
88,ballangen,68.3428,16.8315,278.27,56,0,1.54,NO,1681150786
89,nouakchott,18.0858,-15.9785,295.11,79,40,8.19,MR,1681150786
90,nizwa,22.9333,57.5333,299.79,32,69,1.14,OM,1681150787
91,bisira,8.5196,-81.7115,295.23,58,93,3.46,PA,1681150787
92,sokoto,13.0609,5.239,306.39,10,94,0.93,NG,1681150787
93,waddan,29.1614,16.139,291.67,23,63,4.29,LY,1681150788
94,caborca,30.5838,-111.101,303.62,9,0,1.1,MX,1681150788
95,nhulunbuy,-12.2333,136.7667,299.49,89,75,0.0,AU,1681150788
96,ukiah,39.1502,-123.2078,296.17,54,0,0.45,US,1681150788
97,pierre,44.3683,-100.351,293.63,41,0,3.58,US,1681150789
98,ucluelet,48.9329,-125.5528,282.64,83,100,2.63,CA,1681150789
99,timra,62.487,17.3257,274.97,87,20,2.57,SE,1681150789
100,dingle,10.9995,122.6711,297.31,83,100,2.34,PH,1681150790
101,new norfolk,-42.7826,147.0587,284.77,80,100,0.95,AU,1681150790
102,pevek,69.7008,170.3133,241.35,100,91,2.24,RU,1681150791
103,fushan,37.4958,121.2581,291.41,56,100,8.31,CN,1681150791
104,burriana,39.889,-0.085,290.9,83,69,0.45,ES,1681150791
105,magan,39.9683,-3.931,298.98,33,92,3.84,ES,1681150791
106,mitchell,43.7094,-98.0298,295.14,24,0,4.63,US,1681150792
107,ajdabiya,30.7554,20.2263,289.29,59,35,6.88,LY,1681150792
108,winnemucca,40.973,-117.7357,296.18,23,0,6.17,US,1681150792
109,topolobampo,25.6,-109.05,301.1,30,0,4.63,MX,1681150706
110,grand gaube,-20.0064,57.6608,298.36,82,100,1.34,MU,1681150793
111,areia branca,-4.9561,-37.1369,299.26,71,100,4.25,BR,1681150793
112,bara,10.3744,10.7288,307.08,20,94,0.98,NG,1681150793
113,mount isa,-20.7333,139.5,287.02,67,86,0.0,AU,1681150793
114,victoria,22.2855,114.1577,297.18,90,99,0.45,HK,1681150554
115,orlik,52.5178,99.825,256.8,91,44,1.75,RU,1681150794
116,toora-khem,52.4675,96.11,264.15,91,55,1.49,RU,1681150794
117,alta floresta,-9.8756,-56.0861,306.05,58,75,2.57,BR,1681150795
118,husavik,66.0449,-17.3389,276.23,98,100,3.62,IS,1681150795
119,mahuta,-10.8667,39.45,294.15,98,41,0.67,TZ,1681150795
120,tuatapere,-46.1333,167.6833,286.64,99,100,2.29,NZ,1681150796
121,sargatskoye,55.6101,73.4972,271.39,75,85,6.67,RU,1681150796
122,birao,10.2849,22.7882,305.84,14,100,1.43,CF,1681150796
123,saint-philippe,-21.3585,55.7679,296.92,83,100,3.29,RE,1681150797
124,mackay,-21.15,149.2,292.97,84,2,3.04,AU,1681150797
125,kaka,37.3482,59.6143,291.06,40,67,1.92,TM,1681150797
126,berdigestyakh,62.0989,126.6992,263.31,96,97,1.72,RU,1681150797
127,sao filipe,14.8961,-24.4956,295.09,69,11,4.76,CV,1681150798
128,suntar,62.1444,117.6319,254.37,99,100,0.07,RU,1681150798
129,maltahohe,-24.8333,16.9833,289.63,24,0,4.98,NA,1681150798
130,savonlinna,61.8699,28.88,275.18,60,0,0.51,FI,1681150799
131,san cristobal,7.7669,-72.225,299.25,41,56,3.86,VE,1681150536
132,avarua,-21.2078,-159.775,298.18,78,20,3.09,CK,1681150524
133,hithadhoo,-0.6,73.0833,301.43,66,8,1.82,MV,1681150799
134,jacareacanga,-6.2222,-57.7528,298.01,96,100,1.09,BR,1681150799
135,chokurdakh,70.6333,147.9167,247.8,94,100,2.94,RU,1681150800
136,mar del plata,-38.0023,-57.5575,289.23,72,100,7.72,AR,1681150800
137,airai,-8.9266,125.4092,288.48,95,84,1.04,TL,1681150801
138,polovinnoye,54.7914,65.9864,274.27,47,81,3.99,RU,1681150801
139,liverpool,53.4106,-2.9779,283.57,76,75,9.77,GB,1681150802
140,san matias,-16.3667,-58.4,300.2,77,88,2.3,BO,1681150802
141,ahuimanu,21.4447,-157.8378,298.99,78,20,5.14,US,1681150803
142,saldanha,-33.0117,17.9442,287.18,72,0,4.7,ZA,1681150787
143,tasiilaq,65.6145,-37.6368,275.24,96,100,8.01,GL,1681150804
144,nanortalik,60.1432,-45.2371,275.08,90,100,3.35,GL,1681150804
145,port elizabeth,-33.918,25.5701,289.87,68,20,10.8,ZA,1681150805
146,hasaki,35.7333,140.8333,288.37,70,51,10.27,JP,1681150806
147,kapuskasing,49.4169,-82.4331,288.2,46,20,6.69,CA,1681150806
148,balad,34.0164,44.1453,300.28,20,100,5.09,IQ,1681150807
149,klaksvik,62.2266,-6.589,280.66,97,100,1.08,FO,1681150808
150,mahibadhoo,3.7833,72.9667,302.26,71,46,4.36,MV,1681150808
151,cairns,-16.9167,145.7667,298.74,97,75,0.0,AU,1681150809
152,vaini,-21.2,-175.2,298.24,94,20,2.57,TO,1681150810
153,upernavik,72.7868,-56.1549,256.79,94,100,7.84,GL,1681150810
154,manzini,-26.25,31.5,293.27,68,100,2.45,SZ,1681150811
155,abong mbang,3.9833,13.1833,296.17,82,99,1.75,CM,1681150812
156,bambous virieux,-20.3428,57.7575,298.27,100,75,2.57,MU,1681150813
157,boksitogorsk,59.474,33.8485,277.8,87,4,1.78,RU,1681150814
158,bengkulu,-3.8004,102.2655,297.32,89,85,1.55,ID,1681150815
159,vao,-22.6667,167.4833,298.66,79,0,2.9,NC,1681150817
160,batagay-alyta,67.8006,130.4114,244.57,99,96,2.4,RU,1681150818
161,kultuk,51.7208,103.6956,262.35,89,44,2.16,RU,1681150819
162,fianarantsoa,-21.4333,47.0833,289.35,97,29,1.44,MG,1681150822
163,khatanga,71.9667,102.5,251.49,100,100,1.78,RU,1681150823
164,amalapuram,16.5833,82.0167,298.5,78,0,1.0,IN,1681150826
165,vrangel,42.7297,133.0839,277.92,90,88,3.05,RU,1681150827
166,muros,42.7762,-9.0603,289.31,90,100,2.15,ES,1681150829
167,grajau,-5.8194,-46.1386,298.79,91,84,0.62,BR,1681150591
168,nantucket,41.2835,-70.0995,287.23,58,0,7.2,US,1681150680
169,kalmunai,7.4167,81.8167,300.53,73,4,3.13,LK,1681150830
170,lida,53.8833,25.2997,285.87,60,91,1.21,BY,1681150831
171,broken hill,-31.95,141.4333,285.35,57,0,2.12,AU,1681150832
172,acapulco,16.8634,-99.8901,304.05,58,0,3.6,MX,1681150692
173,samarai,-10.6167,150.6667,300.24,82,100,2.31,PG,1681150834
174,sioux lookout,50.1001,-91.917,285.19,40,75,5.14,CA,1681150835
175,alofi,-19.0595,-169.9187,298.09,94,75,4.12,NU,1681150836
176,kamaishi,39.2667,141.8833,282.85,63,60,2.86,JP,1681150836
177,tezu,27.9167,96.1667,296.14,45,78,2.69,IN,1681150837
178,lampa,-33.2833,-70.9,303.19,17,0,3.09,CL,1681150837
179,saint-georges,12.0564,-61.7485,302.97,70,20,11.83,GD,1681150837
180,iqaluit,63.7506,-68.5145,255.0,78,40,2.06,CA,1681150838
181,bure,10.7,37.0667,295.11,30,85,2.07,ET,1681150838
182,kruisfontein,-34.0033,24.7314,288.64,66,45,12.51,ZA,1681150838
183,hirschaid,49.8194,10.9908,285.92,67,97,3.08,DE,1681150839
184,chandbali,20.7833,86.7667,302.21,54,0,4.91,IN,1681150839
185,cabo san lucas,22.8909,-109.9124,305.76,23,75,4.63,MX,1681150644
186,salina cruz,16.1667,-95.2,306.31,41,51,10.36,MX,1681150840
187,leshukonskoye,64.8989,45.7622,272.33,92,100,3.8,RU,1681150840
188,dicabisagan,17.0818,122.4157,296.78,88,99,2.08,PH,1681150841
189,ponta do sol,32.6667,-17.1,296.55,53,0,3.17,PT,1681150842
190,ler,8.3018,30.1418,305.94,33,88,0.89,SS,1681150842
191,tarko-sale,64.9225,77.785,258.28,94,100,8.55,RU,1681150842
192,carnarvon,-24.8667,113.6333,295.25,71,11,8.95,AU,1681150842
193,meulaboh,4.1363,96.1285,298.05,89,89,1.58,ID,1681150843
194,gizo,-8.103,156.8419,300.72,76,98,2.97,SB,1681150843
195,kuznechnoye,61.12,29.8686,274.26,86,68,1.42,RU,1681150831
196,kahului,20.8947,-156.47,297.58,71,20,7.72,US,1681150844
197,vila velha,-20.3297,-40.2925,300.12,50,0,6.69,BR,1681150844
198,tiksi,71.6872,128.8694,244.44,100,81,1.32,RU,1681150845
199,bairiki,1.3292,172.9752,299.15,94,75,0.51,KI,1681150845
200,bethel,41.3712,-73.414,292.24,22,0,2.06,US,1681150716
201,karasburg,-28.0167,18.75,288.67,26,0,3.32,NA,1681150846
202,grindavik,63.8424,-22.4338,279.41,75,75,3.09,IS,1681150846
203,bodden town,19.2833,-81.25,302.15,61,20,3.09,KY,1681150847
204,yulara,-25.2406,130.9889,297.6,32,57,3.99,AU,1681150847
205,namatanai,-3.6667,152.4333,298.2,88,100,2.05,PG,1681150847
206,leningradskiy,69.3833,178.4167,247.28,93,100,2.96,RU,1681150847
207,kurchum,48.5722,83.6542,276.82,52,91,2.89,KZ,1681150848
208,kindersley,51.4668,-109.1682,280.16,57,75,2.06,CA,1681150848
209,lagoa,39.05,-27.9833,288.91,79,74,5.39,PT,1681150849
210,port alfred,-33.5906,26.891,288.81,63,1,4.92,ZA,1681150849
211,hofn,64.2539,-15.2082,278.16,93,100,2.57,IS,1681150849
212,koumac,-20.5667,164.2833,297.45,73,1,1.06,NC,1681150850
213,avera,33.194,-82.5271,290.88,36,100,6.37,US,1681150850
214,acarau,-2.8856,-40.12,299.12,86,100,5.22,BR,1681150850
215,machali,-34.1833,-70.6667,299.75,26,0,3.6,CL,1681150851
216,sandpoint,48.2766,-116.5533,285.05,94,100,0.0,US,1681150851
217,santa rosa,14.3122,121.1114,300.43,78,97,3.28,PH,1681150683
218,nikolskoye,59.7035,30.7861,279.71,88,87,1.83,RU,1681150852
219,narsaq,60.9167,-46.05,282.27,79,100,1.87,GL,1681150852
220,rincon,32.296,-81.2354,294.13,40,75,6.69,US,1681150852
221,vanderhoof,54.0166,-124.0198,278.69,54,73,1.49,CA,1681150853
222,isiro,2.7739,27.616,296.27,66,78,0.74,CD,1681150853
223,el rusio,14.4667,-86.3667,305.01,26,8,2.82,HN,1681150853
224,porbandar,21.6422,69.6093,298.77,64,95,3.85,IN,1681150853
225,beloha,-25.1667,45.05,296.49,84,0,3.46,MG,1681150854
226,namanga,-2.5433,36.7905,294.81,66,56,4.18,KE,1681150854
227,busayra,30.7376,35.6078,288.05,73,100,2.83,JO,1681150854
228,zachepylivka,49.1939,35.2394,284.42,57,99,4.39,UA,1681150855
229,gat,31.61,34.7642,295.27,100,93,7.26,IL,1681150855
230,chulym,55.0997,80.9572,275.75,67,30,5.35,RU,1681150856
231,carballo,43.213,-8.691,289.21,91,100,1.95,ES,1681150856
232,villa bruzual,9.3328,-69.1208,306.91,38,62,3.49,VE,1681150856
233,norsup,-16.0667,167.3833,300.49,83,49,4.58,VU,1681150857
234,pangnirtung,66.1451,-65.7125,256.15,78,0,3.09,CA,1681150857
235,painesville,41.7245,-81.2457,293.86,36,0,2.06,US,1681150740
236,sinnar,13.5691,33.5672,309.59,10,7,3.88,SD,1681150858
237,aviles,43.5547,-5.9248,290.32,81,75,4.63,ES,1681150858
238,altay,47.8667,88.1167,272.98,49,26,3.79,CN,1681150859
239,lasa,46.6166,10.7002,286.64,68,92,0.48,IT,1681150859
240,moron,-34.6534,-58.6198,301.93,49,74,2.8,AR,1681150859
241,okato,-39.2,173.8833,290.47,95,34,5.36,NZ,1681150860
242,saint anthony,45.0205,-93.218,293.21,35,0,4.12,US,1681150860
243,hammerfest,70.6634,23.6821,276.4,81,75,4.12,NO,1681150860
244,manggar,-2.8833,108.2667,299.24,81,100,2.97,ID,1681150860
245,bowen,-20.0167,148.2333,296.0,78,19,2.31,AU,1681150861
246,rocha,-34.4833,-54.3333,299.04,48,7,3.97,UY,1681150861
247,luang prabang,19.8856,102.1347,297.65,45,4,0.64,LA,1681150862
248,porto seguro,-16.4497,-39.0647,300.44,78,75,4.12,BR,1681150862
249,rio gallegos,-51.6226,-69.2181,283.18,29,0,8.23,AR,1681150863
250,jieshi,22.8134,115.8257,294.21,89,92,2.2,CN,1681150864
251,college,64.8569,-147.8028,256.52,71,75,0.0,US,1681150675
252,praia da vitoria,38.7333,-27.0667,293.29,64,20,5.08,PT,1681150865
253,lavrentiya,65.5833,-171.0,243.49,95,54,2.16,RU,1681150866
254,luderitz,-26.6481,15.1594,291.04,52,0,12.8,NA,1681150867
255,santa cruz cabralia,-16.2781,-39.0247,300.28,78,75,4.12,BR,1681150871
256,hwange,-18.3693,26.5019,297.58,40,97,1.09,ZW,1681150872
257,lugovoy,42.9472,72.7644,283.99,76,92,4.21,KZ,1681150872
258,cap malheureux,-19.9842,57.6142,298.41,82,100,1.34,MU,1681150873
259,soe,-9.8607,124.284,291.21,91,49,1.82,ID,1681150874
260,sinnamary,5.3833,-52.95,300.2,77,85,4.16,GF,1681150874
261,pafos,34.7667,32.4167,291.03,88,75,5.14,CY,1681150875
262,nioro,13.35,-15.75,309.93,13,24,2.94,GM,1681150876
263,zambezi,-13.5432,23.1047,294.31,76,88,1.66,ZM,1681150876
264,bathsheba,13.2167,-59.5167,302.49,61,75,9.77,BB,1681150877
265,veraval,20.9,70.3667,299.05,67,84,5.63,IN,1681150877
266,marawi,7.9986,124.2928,292.36,89,99,0.56,PH,1681150878
267,neijiang,29.5835,105.0622,295.23,60,100,3.31,CN,1681150879
268,indiana,40.0003,-86.2503,294.08,25,0,1.34,US,1681150879
269,te anau,-45.4167,167.7167,284.57,97,100,1.39,NZ,1681150880
270,ibipora,-23.2692,-51.0481,303.55,45,20,3.09,BR,1681150880
271,tsakoi,40.9586,22.0364,283.01,88,100,2.29,GR,1681150880
272,konevo,62.1215,39.3192,271.59,97,76,1.39,RU,1681150881
273,staryy nadym,65.6118,72.6842,255.76,90,100,5.9,RU,1681150881
274,fortuna,40.5982,-124.1573,292.79,75,50,2.61,US,1681150881
275,port hardy,50.6996,-127.4199,281.15,87,75,2.57,CA,1681150882
276,beyneu,45.3167,55.2,289.16,44,74,3.75,KZ,1681150882
277,hagdan,11.3333,123.9,299.9,77,100,9.03,PH,1681150883
278,peniche,39.3558,-9.3811,292.2,76,34,6.9,PT,1681150883
279,portales,34.1862,-103.3344,297.09,27,1,0.82,US,1681150884
280,deputatskiy,69.3,139.9,244.61,84,20,2.21,RU,1681150884
281,dukat,62.55,155.55,255.54,99,99,3.12,RU,1681150885
282,huaraz,-9.5333,-77.5333,290.69,57,61,1.43,PE,1681150885
283,nichlaul,27.3167,83.7333,298.3,19,2,2.71,IN,1681150886
284,matay,28.419,30.7792,294.14,45,63,9.8,EG,1681150887
285,oga,46.4631,10.347,282.53,73,92,0.84,IT,1681150887
286,cockburn town,21.4612,-71.1419,299.19,70,8,2.68,TC,1681150887
287,ribeira grande,38.5167,-28.7,291.37,77,20,4.02,PT,1681150598
288,san quintin,30.4833,-115.95,291.06,69,13,4.5,MX,1681150889
289,quesnel,52.9999,-122.5029,280.43,39,0,4.12,CA,1681150889
290,sistranda,63.7256,8.834,282.13,78,100,2.8,NO,1681150890
291,gisborne,-38.6533,178.0042,289.08,88,14,2.61,NZ,1681150890
292,ribeira brava,32.65,-17.0667,296.55,53,0,3.69,PT,1681150891
293,charleston,32.7766,-79.9309,293.82,57,0,6.69,US,1681150892
294,diffa,13.3154,12.6113,308.49,11,90,2.6,NE,1681150893
295,soria,41.6667,-2.6667,290.99,35,69,3.47,ES,1681150894
296,haverfordwest,51.8017,-4.9691,284.57,83,7,11.58,GB,1681150762
297,weston,26.1004,-80.3998,297.61,86,100,6.17,US,1681150895
298,ulladulla,-35.35,150.4667,284.72,61,31,1.75,AU,1681150895
299,zlobin,45.2924,14.6541,281.76,51,0,1.54,HR,1681150896
300,bandarbeyla,9.4942,50.8122,301.24,75,21,5.11,SO,1681150897
301,taoudenni,22.6783,-3.9836,304.93,8,24,6.5,ML,1681150898
302,artvin,41.1667,41.8333,284.56,93,86,2.73,TR,1681150899
303,sal rei,16.1833,-22.9167,297.26,57,75,8.23,CV,1681150899
304,kaitangata,-46.2817,169.8464,286.41,99,100,1.85,NZ,1681150900
305,namibe,-15.1961,12.1522,296.58,76,51,3.28,AO,1681150900
306,pindiga,9.9833,10.9333,306.9,25,99,0.85,NG,1681150900
307,roma,43.2128,-75.4557,290.98,35,11,1.34,US,1681150682
308,kloulklubed,7.0419,134.2556,301.67,77,100,7.29,PW,1681150901
309,tilichiki,60.4667,166.1,263.98,93,100,8.5,RU,1681150901
310,aripuana,-9.1667,-60.6333,302.4,70,100,0.2,BR,1681150902
311,cherdyn,60.403,56.4787,267.33,89,56,1.94,RU,1681150902
312,mago,53.2514,140.1822,269.23,90,7,0.99,RU,1681150902
313,lapeer,43.0514,-83.3188,293.15,27,0,3.6,US,1681150903
314,taltal,-25.4,-70.4833,295.28,68,10,2.57,CL,1681150903
315,dongsheng,39.8161,109.9776,274.7,36,0,2.46,CN,1681150904
316,newport,51.5877,-2.9984,284.51,79,0,12.15,GB,1681150854
317,tessalit,20.1986,1.0114,303.41,12,100,6.99,ML,1681150904
318,thinadhoo,0.5333,72.9333,301.74,69,43,2.95,MV,1681150905
319,barber,12.2833,-69.0667,302.14,70,75,6.17,CW,1681150905
320,batagay,67.6333,134.6333,246.74,90,3,1.84,RU,1681150905
321,kandrian,-6.2167,149.55,298.13,89,100,2.18,PG,1681150905
322,hambantota,6.1241,81.1185,299.9,77,18,6.29,LK,1681150906
323,kamenka,51.3223,42.7678,282.46,44,1,2.5,RU,1681150906
324,olinda,-8.0089,-34.8553,302.0,70,40,3.09,BR,1681150906
325,haines junction,60.7522,-137.5108,275.12,48,91,0.51,CA,1681150907
326,zhashkiv,49.2454,30.1102,282.3,77,98,3.13,UA,1681150907
327,caravelas,-17.7125,-39.2481,299.96,78,75,5.88,BR,1681150907
328,gravdal,68.1214,13.5031,279.09,56,0,3.6,NO,1681150907
329,longyearbyen,78.2186,15.6401,271.06,74,75,0.0,SJ,1681150908
330,tallahassee,30.4383,-84.2807,294.06,59,75,5.66,US,1681150897
331,ray,23.6833,85.05,301.58,20,1,2.46,IN,1681150913
332,seoul,37.5683,126.9778,285.84,52,78,4.46,KR,1681150212
333,andros town,24.7,-77.7667,297.13,66,95,5.0,BS,1681150797
334,katsuura,35.1333,140.3,289.3,71,34,10.03,JP,1681150913
335,kangaatsiaq,68.3065,-53.4641,269.53,85,87,4.71,GL,1681150914
336,salisbury,51.0693,-1.7957,285.38,58,20,9.77,GB,1681150914
337,richards bay,-28.783,32.0377,295.0,87,100,4.32,ZA,1681150914
338,turukhansk,65.8167,87.9833,257.06,87,100,3.11,RU,1681150737
339,rupert,42.6191,-113.6772,291.12,36,0,4.12,US,1681150915
340,necochea,-38.5473,-58.7368,288.91,54,67,6.28,AR,1681150915
341,virginia beach,36.8529,-75.978,288.73,58,0,5.66,US,1681150915
342,aku,6.7081,7.3167,302.77,58,81,3.6,NG,1681150916
343,kavieng,-2.5744,150.7967,298.73,90,100,5.43,PG,1681150916
344,ratnagiri,16.9833,73.3,300.06,80,4,0.9,IN,1681150916
345,antalaha,-14.9003,50.2788,297.89,85,58,1.47,MG,1681150632
346,jurmala,56.968,23.7704,282.03,61,0,1.03,LV,1681150917
347,novovorontsovka,47.5004,33.9175,284.36,64,100,5.53,UA,1681150917
348,ancud,-41.8697,-73.8203,287.89,99,100,2.35,CL,1681150918
349,tanout,14.9709,8.8879,307.36,9,100,4.24,NE,1681150918
350,petropavlovsk-kamchatskiy,53.0452,158.6483,272.48,100,75,2.0,RU,1681150918
351,binga,-17.6203,27.3414,297.92,51,31,0.72,ZW,1681150919
352,itarema,-2.9248,-39.9167,298.84,88,100,5.63,BR,1681150919
353,svetlaya,46.5389,138.3297,275.18,83,68,2.55,RU,1681150919
354,sinegorye,62.0788,150.477,254.65,97,100,1.7,RU,1681150924
355,mayumba,-3.432,10.6554,300.0,84,100,2.32,GA,1681150925
356,perth,-31.9333,115.8333,291.92,75,75,8.75,AU,1681150812
357,la libertad,-2.2333,-80.9,300.96,83,75,1.03,EC,1681150926
358,ust-tsilma,65.441,52.1498,272.93,93,100,4.83,RU,1681150926
359,dargaville,-35.9333,173.8833,287.32,95,40,2.36,NZ,1681150927
360,aksarka,66.5606,67.7975,251.54,98,93,2.64,RU,1681150928
361,laguna,38.421,-121.4238,298.5,54,0,1.54,US,1681150928
362,kurilsk,45.2333,147.8833,276.22,80,99,1.79,RU,1681150928
363,safford,32.834,-109.7076,301.34,13,0,3.13,US,1681150929
364,nogliki,51.8333,143.1667,266.18,90,21,1.78,RU,1681150930
365,litovko,49.2361,135.1742,277.53,63,92,2.62,RU,1681150930
366,hovd,48.0056,91.6419,271.78,35,17,0.27,MN,1681150931
367,tual,-5.6667,132.75,301.51,74,100,3.08,ID,1681150932
368,kawalu,-7.3817,108.2082,295.2,97,92,0.58,ID,1681150933
369,lorengau,-2.0226,147.2712,297.98,89,100,1.37,PG,1681150934
370,nanae,41.8833,140.6833,281.88,91,91,2.9,JP,1681150934
371,mount gambier,-37.8333,140.7667,283.07,92,59,0.84,AU,1681150935
372,morar,26.2261,78.2261,301.56,12,66,1.96,IN,1681150936
373,cayenne,4.9333,-52.3333,299.17,89,100,2.57,GF,1681150936
374,yenagoa,4.9247,6.2642,300.21,84,94,2.56,NG,1681150937
375,eyl,7.9803,49.8164,301.24,73,76,6.36,SO,1681150938
376,esil,51.9556,66.4042,278.89,63,5,3.41,KZ,1681150938
377,kishtwar,33.3167,75.7667,283.52,55,7,2.6,IN,1681150939
378,cabra,37.4725,-4.4421,296.78,29,34,1.07,ES,1681150939
379,kudahuvadhoo,2.6708,72.8944,301.42,74,36,4.13,MV,1681150939
380,dong xoai,11.5333,106.9167,298.18,78,47,1.95,VN,1681150940
381,biak,-0.9131,122.8766,297.98,82,27,1.55,ID,1681150941
382,coachella,33.6803,-116.1739,307.38,13,0,3.09,US,1681150941
383,maine-soroa,13.2114,12.0241,308.67,10,99,4.11,NE,1681150942
384,denpasar,-8.65,115.2167,300.96,83,40,5.66,ID,1681150633
385,zavetnoye,47.1194,43.8903,283.38,61,42,4.41,RU,1681150943
386,port lincoln,-34.7333,135.8667,291.1,72,84,8.38,AU,1681150944
387,okhotsk,59.3833,143.3,258.65,66,0,9.42,RU,1681150944
388,caidian,30.5833,114.0333,290.22,71,27,2.27,CN,1681150945
389,isangel,-19.55,169.2667,299.52,87,0,1.88,VU,1681150946
390,guerrero negro,27.9769,-114.0611,294.12,55,1,4.52,MX,1681150946
391,ornskoldsvik,63.2909,18.7153,275.68,80,100,3.09,SE,1681150946
392,ukrayinka,47.9167,35.35,284.47,58,100,5.95,UA,1681150947
393,nuuk,64.1835,-51.7216,277.49,56,20,5.66,GL,1681150948
394,nizhniy kuranakh,58.8353,125.4869,264.35,95,100,3.38,RU,1681150948
395,rivadavia,-33.1905,-68.4608,300.34,37,32,4.22,AR,1681150902
396,anadyr,64.75,177.4833,253.43,65,0,5.0,RU,1681150950
397,oussouye,12.485,-16.5469,304.25,48,9,7.73,SN,1681150950
398,lethem,3.3803,-59.7968,310.93,26,75,3.35,GY,1681150951
399,la ronge,55.1001,-105.2842,283.29,22,20,10.8,CA,1681150952
400,rahimatpur,17.6,74.2,302.48,39,60,1.59,IN,1681150952
401,egvekinot,66.3167,-179.1667,246.63,87,56,2.3,RU,1681150953
402,buala,-8.145,159.5921,299.49,78,100,1.18,SB,1681150954
403,sverdlovskiy,55.9108,38.1536,281.01,70,90,0.24,RU,1681150954
404,moroni,-11.7022,43.2551,299.24,84,64,1.74,KM,1681150955
405,atambua,-9.1061,124.8925,295.65,92,62,0.82,ID,1681150782
406,alexander city,32.944,-85.9539,291.85,32,67,4.59,US,1681150956
407,imeni poliny osipenko,52.4201,136.4853,270.96,91,96,2.88,RU,1681150957
408,billings,45.7833,-108.5007,294.98,28,75,9.26,US,1681150743
409,zabaykalsk,49.6333,117.3167,266.33,89,100,12.4,RU,1681150957
410,tongliao,43.6125,122.2653,281.37,24,94,5.87,CN,1681150958
411,stornoway,58.2093,-6.3865,280.89,92,40,1.03,GB,1681150958
412,konitsa,40.0486,20.7567,280.61,89,92,2.3,GR,1681150958
413,codrington,-38.2667,141.9667,285.99,80,83,2.69,AU,1681150959
414,buckeye,33.3703,-112.5838,305.86,13,0,7.2,US,1681150891
415,baiyin,36.5583,104.2081,280.67,29,0,1.48,CN,1681150959
416,natal,-5.795,-35.2094,303.27,66,40,7.2,BR,1681150733
417,hobyo,5.3505,48.5268,301.98,72,78,7.26,SO,1681150960
418,manono,-7.3,27.4167,295.64,91,97,1.82,CD,1681150960
419,surab,28.4914,66.2585,289.81,41,86,4.72,PK,1681150961
420,seydi,39.4816,62.9137,290.98,42,4,3.33,TM,1681150961
421,raudeberg,61.9875,5.1352,282.52,62,100,4.95,NO,1681150961
422,tautira,-17.7333,-149.15,300.15,77,99,4.31,PF,1681150962
423,cam ranh,11.9214,109.1591,299.13,89,20,1.03,VN,1681150962
424,totoral,-17.4053,-70.365,295.98,53,10,4.42,PE,1681150962
425,hastings,50.8552,0.5729,285.01,36,58,11.09,GB,1681150963
426,touros,-5.1989,-35.4608,301.42,74,75,4.61,BR,1681150719
427,assiniboia,49.6334,-105.9845,285.05,58,28,6.69,CA,1681150964
428,manokwari,-0.8667,134.0833,298.78,80,91,1.26,ID,1681150964
429,provideniya,64.3833,-173.3,248.55,96,59,2.35,RU,1681150964
430,borogontsy,62.6683,131.1683,254.84,97,62,2.3,RU,1681150964
431,sola,-13.8833,167.55,301.3,77,99,6.33,VU,1681150965
432,aboisso,5.4678,-3.2071,300.87,76,96,2.86,CI,1681150966
433,baruun-urt,46.6806,113.2792,264.62,32,58,10.48,MN,1681150966
434,vardo,70.3705,31.1107,276.14,81,75,8.23,NO,1681150966
435,tombouctou,20.0,-3.0,305.25,11,100,4.55,ML,1681150967
436,emet,39.343,29.2585,279.53,90,100,2.33,TR,1681150967
437,ambon,-3.6954,128.1814,297.23,94,20,2.57,ID,1681150967
438,pinheiro,-2.5214,-45.0825,301.1,87,97,0.78,BR,1681150968
439,key west,24.5557,-81.7826,300.15,69,40,5.66,US,1681150968
440,coihaique,-45.5752,-72.0662,281.49,61,75,2.06,CL,1681150968
441,karauli,26.5,77.0167,301.25,13,65,2.46,IN,1681150968
442,paamiut,61.994,-49.6678,273.55,88,32,1.34,GL,1681150969
443,morro bay,35.3658,-120.8499,298.36,49,0,2.68,US,1681150969
444,algeciras,36.1333,-5.4505,298.97,25,0,4.63,ES,1681150922
445,havoysund,70.9963,24.6622,276.28,91,100,6.9,NO,1681150970
446,iskateley,67.6803,53.1512,273.11,97,100,8.24,RU,1681150876
447,arlit,18.7369,7.3853,307.13,11,92,5.39,NE,1681150971
448,bulungu,-4.55,18.6,297.24,88,80,1.28,CD,1681150971
449,rosetta,31.4044,30.4164,289.68,73,26,8.53,EG,1681150972
450,sorland,67.667,12.6934,279.07,79,0,7.19,NO,1681150972
451,solnechnyy,50.7214,136.6319,274.51,80,84,0.68,RU,1681150972
452,pasinler,39.9803,41.6764,278.7,92,100,1.14,TR,1681150973
453,belmonte,-15.8631,-38.8828,299.69,86,76,4.93,BR,1681150973
454,ixtapa,20.7,-105.2,298.72,65,75,4.12,MX,1681150974
455,domna,51.8971,113.1573,268.24,45,100,15.0,RU,1681150974
456,orthez,43.4884,-0.7724,290.86,82,100,3.36,FR,1681150974
457,kununurra,-15.7667,128.7333,298.14,100,100,0.0,AU,1681150975
458,shingu,33.7333,135.9833,284.9,84,5,2.7,JP,1681150976
459,awbari,26.5921,12.7805,294.17,19,1,2.99,LY,1681150976
460,naze,28.3667,129.4833,291.66,68,12,4.2,JP,1681150976
461,krasnoselkup,65.7,82.4667,257.64,93,100,6.17,RU,1681150977
462,yeppoon,-23.1333,150.7333,289.03,71,0,2.97,AU,1681150977
463,tingo maria,-9.2895,-76.0088,304.32,55,40,2.06,PE,1681150977
464,sao felix do xingu,-6.6447,-51.995,302.72,67,81,0.85,BR,1681150978
465,san policarpo,12.1791,125.5072,296.41,94,100,7.48,PH,1681150978
466,margate,51.3813,1.3862,285.3,71,66,2.68,GB,1681150978
467,north bend,43.4065,-124.2243,283.28,94,100,3.09,US,1681150978
468,hamilton,39.1834,-84.5333,294.68,25,0,2.57,US,1681150698
469,kamyshlov,56.8428,62.7111,273.27,53,83,3.29,RU,1681150979
470,una,20.8167,71.0333,300.88,41,81,4.12,IN,1681150980
471,krasnaya zarya,52.7825,37.6806,282.68,46,52,2.41,RU,1681150980
472,broome,42.2506,-75.833,291.32,24,0,2.24,US,1681150981
473,waipawa,-41.4122,175.5153,286.51,79,15,5.01,NZ,1681150982
474,puertollano,38.6871,-4.1073,297.64,29,39,3.47,ES,1681150982
475,artigas,-30.4,-56.4667,301.46,44,11,1.28,UY,1681150986
476,ivybridge,50.3904,-3.9191,284.18,72,5,9.91,GB,1681150986
477,nanakuli,21.3906,-158.1547,299.12,75,75,2.57,US,1681150987
478,bushenyi,-0.5853,30.2114,290.45,89,93,1.61,UG,1681150988
479,udachnyy,66.4167,112.4,242.78,99,44,2.38,RU,1681150988
480,bonavista,48.6499,-53.1147,273.93,86,91,5.56,CA,1681150989
481,poyarkovo,49.6,128.6833,278.81,90,16,3.03,RU,1681150990
482,kokstad,-30.5472,29.4241,283.75,91,8,0.84,ZA,1681150990
483,vire,48.9167,-0.8333,284.81,83,77,6.42,FR,1681150991
484,general roca,-39.0333,-67.5833,286.27,58,100,4.52,AR,1681150992
485,batsfjord,70.6345,29.7185,276.03,87,100,9.26,NO,1681150992
486,daru,-9.0763,143.2092,298.45,87,100,1.08,PG,1681150993
487,montepuez,-13.1256,38.9997,294.07,95,19,1.77,MZ,1681150994
488,mykhaylivka,47.2724,35.2224,285.43,61,100,5.58,UA,1681150995
489,trelew,-43.249,-65.3051,283.39,63,100,6.85,AR,1681150995
490,kouango,4.9934,19.9619,297.82,82,99,3.13,CF,1681150996
491,balikpapan,-1.2675,116.8289,297.7,94,20,2.57,ID,1681150928
492,el cobre,20.0489,-75.9469,301.84,65,40,3.09,CU,1681150997
493,arona,28.0996,-16.681,297.44,43,0,15.43,ES,1681150998
494,liwale,-9.7667,37.9333,294.23,96,84,0.67,TZ,1681150999
495,la primavera,5.4906,-70.4092,307.16,41,56,1.67,CO,1681150999
496,coquimbo,-29.9533,-71.3436,292.0,77,20,4.12,CL,1681151000
497,the valley,18.217,-63.0578,302.07,74,40,6.69,AI,1681151000
498,rey bouba,8.6724,14.1786,309.59,21,87,1.73,CM,1681151001
499,oktyabrskiy,54.4815,53.471,279.63,62,42,3.4,RU,1681151002
500,mizdah,31.4451,12.9801,290.43,29,0,4.83,LY,1681151002
501,rosario,-32.9468,-60.6393,304.23,44,0,4.63,AR,1681150959
502,mecca,21.4267,39.8261,303.35,46,0,5.8,SA,1681150895
503,luanda,-8.8368,13.2343,300.03,84,83,3.53,AO,1681150959
504,strezhevoy,60.7333,77.5889,261.81,92,99,5.95,RU,1681151005
505,constantine,36.365,6.6147,288.82,33,0,3.6,DZ,1681151006
506,benjamin aceval,-24.9667,-57.5667,305.23,67,99,0.69,PY,1681151006
507,nuristan,35.3,70.8333,270.84,62,45,4.08,AF,1681151007
508,derzhavinsk,51.1,66.3167,280.01,52,1,3.67,KZ,1681151007
509,matagami,49.7502,-77.6328,285.21,47,0,9.26,CA,1681151007
510,lahan,26.7296,86.4951,299.47,16,0,1.93,NP,1681151008
511,haapiti,-17.5667,-149.8667,301.0,72,100,4.03,PF,1681151009
512,balykshi,47.0667,51.8667,282.15,49,0,3.0,KZ,1681151009
513,coahuayana,18.7333,-103.6833,307.2,31,92,3.04,MX,1681151010
514,chara,56.9064,118.2631,265.71,81,100,4.34,RU,1681151010
515,chicama,-7.8447,-79.1469,302.45,61,51,4.54,PE,1681151011
516,alice springs,-23.7,133.8833,289.9,55,51,0.0,AU,1681151011
517,constitucion,-35.3333,-72.4167,292.83,69,100,4.7,CL,1681151011
518,caimito,8.8123,-75.4107,307.57,44,37,2.08,CO,1681151012
519,bayonet point,28.3267,-82.6834,301.59,61,93,1.79,US,1681151013
520,makasar,-5.14,119.4221,296.18,94,40,2.57,ID,1681151013
521,qaqortoq,60.7167,-46.0333,277.35,79,100,2.39,GL,1681151014
522,high level,58.5169,-117.136,282.21,29,20,6.69,CA,1681150808
523,chauk,20.8833,94.8167,304.32,35,0,2.66,MM,1681151015
524,mookane,-23.688,26.6595,292.07,69,97,0.96,BW,1681151015
525,mirzapur,25.15,82.5833,296.13,12,21,2.75,IN,1681151016
526,maryville,35.7565,-83.9705,294.88,36,20,2.57,US,1681151016
527,teofilo otoni,-17.8575,-41.5053,300.06,60,100,2.52,BR,1681151017
528,vostok,46.4856,135.8833,278.48,65,61,2.38,RU,1681151017
529,mehamn,71.0357,27.8492,276.12,93,75,8.23,NO,1681151017
530,dharchula,29.85,80.5333,288.71,41,21,3.49,IN,1681151018
531,kaspiyskiy,45.3929,47.3707,284.87,70,79,4.51,RU,1681151018
532,vaitape,-16.5167,-151.75,300.61,74,100,5.32,PF,1681151018
533,kapit,2.0167,112.9333,295.74,99,76,0.65,MY,1681151019
534,bandiagara,14.3501,-3.6104,309.65,13,98,5.05,ML,1681151019
535,puga,21.5833,-104.8167,306.19,29,75,3.09,MX,1681151019
536,bichena,10.45,38.2,289.11,63,67,2.57,ET,1681151020
537,erdenet,49.0333,104.0833,265.62,35,3,1.37,MN,1681151020
538,najran,17.4924,44.1277,295.51,39,37,0.95,SA,1681151020
539,yevlax,40.6089,47.1492,287.14,77,100,3.09,AZ,1681151020
540,pingliang,35.5392,106.6861,284.6,35,94,3.27,CN,1681151021
541,sao jose da coroa grande,-8.8978,-35.1478,301.13,70,99,3.48,BR,1681151021
542,saint-augustin,51.226,-58.6502,276.82,66,58,5.21,CA,1681151021
543,carlos chagas,-17.7031,-40.7664,300.58,60,99,4.3,BR,1681151022
544,pawa,13.1747,123.7328,297.89,83,100,4.61,PH,1681151022
545,charagua,-19.8,-63.2167,302.29,39,73,3.4,BO,1681151022
546,aloleng,16.1307,119.7824,298.6,84,73,1.64,PH,1681151023
547,fairbanks,64.8378,-147.7164,258.27,70,75,0.45,US,1681150843
548,orichi,58.4036,49.0572,274.98,75,26,2.5,RU,1681150757
549,biskamzha,53.4497,89.5272,265.87,97,96,0.36,RU,1681151024
550,rognan,67.0953,15.3878,279.75,79,16,3.74,NO,1681151024
551,terrace,54.5163,-128.6035,280.1,81,75,5.14,CA,1681151024
552,asyut,27.181,31.1837,299.25,31,99,7.73,EG,1681151024
553,balugaon,20.1667,85.1,303.88,39,27,1.86,IN,1681151025
554,santa maria,-29.6842,-53.8069,303.76,42,40,3.09,BR,1681151025
555,maceio,-9.6658,-35.7353,303.84,66,20,4.63,BR,1681151025
556,itimadpur,27.25,78.2,300.72,13,57,1.9,IN,1681151026
557,nador,35.174,-2.9287,301.19,53,0,0.51,MA,1681151026
558,oranjemund,-28.55,16.4333,288.26,79,2,8.97,NA,1681151026
559,muroto,33.2833,134.15,290.32,73,75,7.19,JP,1681151027
560,atar,20.5169,-13.0499,308.43,15,48,5.9,MR,1681151027
561,manali,13.1667,80.2667,302.08,82,1,2.45,IN,1681151027
562,namie,37.4833,141.0,283.92,53,96,2.34,JP,1681151027
563,klos,41.5072,20.0851,285.68,84,93,2.74,AL,1681151028
564,kampot,10.6167,104.1833,300.18,81,26,2.57,KH,1681151028
565,bojnurd,37.4747,57.329,284.12,43,0,1.03,IR,1681151029
566,awjilah,29.1081,21.2869,291.74,41,57,6.71,LY,1681151029
567,gorontalo,0.5412,123.0595,297.19,96,91,1.63,ID,1681151029
568,kachug,53.9606,105.8817,261.03,90,7,1.19,RU,1681151030
569,makakilo city,21.3469,-158.0858,298.33,77,75,4.12,US,1681151030
570,morgantown,39.6295,-79.9559,293.82,25,0,0.89,US,1681150990
571,aldergrove,49.058,-122.4709,281.78,88,100,3.6,CA,1681151031
572,el limon,10.3059,-67.6321,305.77,48,93,2.61,VE,1681151031
573,torbay,47.6666,-52.7314,278.86,65,75,8.23,CA,1681151031
574,vestmannaeyjar,63.4427,-20.2734,279.7,81,20,5.14,IS,1681151032
575,jalu,29.0331,21.5482,291.98,37,64,6.6,LY,1681151032
576,saint-pierre,-21.3393,55.4781,297.91,94,75,3.6,RE,1681151032
577,hearst,49.6835,-83.6665,287.29,100,100,3.71,CA,1681151033
578,guanica,17.9716,-66.908,303.25,72,1,5.34,PR,1681151033
579,otane,-39.8833,176.6333,284.04,91,0,1.7,NZ,1681151034
