City_ID,City,Lat,Lng,Max Temp,Humidity,Cloudiness,Wind Speed,Country,Date
0,la paz,-16.5,-68.15,29.214,17,75,4.63,BO,1681329675
1,hobart,-42.8794,147.3294,28.607,96,100,0.0,AU,1681329426
2,ellisras,-23.6649,27.7443,29.135,58,35,1.57,ZA,1681329676
3,tuktoyaktuk,69.4541,-133.0374,25.215,71,40,7.72,CA,1681329676
4,castro,-24.7911,-50.0119,29.404000000000003,74,95,1.31,BR,1681329677
5,broome,42.2506,-75.833,29.976,35,5,4.92,US,1681329677
6,christchurch,-43.5333,172.6333,28.643,94,100,2.06,NZ,1681329551
7,mahebourg,-20.4081,57.7,29.773000000000003,88,20,2.06,MU,1681329678
8,rikitea,-23.1203,-134.9692,29.851,69,62,5.36,PF,1681329678
9,ugoofaaru,5.6667,73.0,30.179000000000002,77,9,4.21,MV,1681329678
10,puerto ayora,-0.7393,-90.3518,30.413,83,91,4.02,EC,1681329572
11,victoria,22.2855,114.1577,29.618000000000002,89,100,2.24,HK,1681329548
12,kalmunai,7.4167,81.8167,30.004,80,91,0.7,LK,1681329682
13,severo-kurilsk,50.6789,156.125,27.25,96,100,11.12,RU,1681329683
14,port hardy,50.6996,-127.4199,28.125,71,40,6.69,CA,1681329641
15,avarua,-21.2078,-159.775,30.018,74,73,4.12,CK,1681329685
16,bundaberg,-24.85,152.35,29.383,99,0,0.89,AU,1681329685
17,nanortalik,60.1432,-45.2371,27.418,88,100,0.87,GL,1681329686
18,salalah,17.0151,54.0924,29.806,93,28,7.42,OM,1681329631
19,victor harbor,-35.5667,138.6167,28.631,77,88,3.81,AU,1681329687
20,arraial do cabo,-22.9661,-42.0278,29.913,73,75,8.23,BR,1681329487
21,carnarvon,-24.8667,113.6333,29.49,75,21,9.55,AU,1681329687
22,ushuaia,-54.8,-68.3,27.796,60,40,10.8,AR,1681329688
23,kununurra,-15.7667,128.7333,29.913999999999998,94,100,2.06,AU,1681329689
24,punta arenas,-53.15,-70.9167,28.016000000000002,56,0,3.6,CL,1681329596
25,andenes,69.3143,16.1194,27.814,70,0,5.14,NO,1681329690
26,butaritari,3.0707,172.7902,30.061,73,85,2.07,KI,1681329691
27,dunedin,-45.8742,170.5036,28.526,99,100,1.34,NZ,1681329559
28,chokurdakh,70.6333,147.9167,25.408,95,100,1.79,RU,1681329692
29,sierra vista,31.5545,-110.3037,30.297000000000004,12,0,7.72,US,1681329420
30,kapaa,22.0752,-159.319,29.913999999999998,80,100,3.13,US,1681329693
31,barrow,71.2906,-156.7887,25.016,70,40,4.12,US,1681329693
32,lavrentiya,65.5833,-171.0,25.633,88,71,1.17,RU,1681329694
33,mecca,21.4267,39.8261,29.621,48,9,5.56,SA,1681329593
34,chuy,-33.6971,-53.4616,29.198,85,100,5.45,UY,1681329694
35,cidreira,-30.1811,-50.2056,30.008999999999997,64,57,2.87,BR,1681329695
36,san quintin,30.4833,-115.95,28.951,69,96,6.57,MX,1681329695
37,thompson,55.7435,-97.8558,27.224,93,100,3.6,CA,1681329696
38,yellowknife,62.456,-114.3525,26.844,74,100,3.09,CA,1681329696
39,new norfolk,-42.7826,147.0587,28.588,83,65,0.46,AU,1681329696
40,kahului,20.8947,-156.47,29.917,73,65,5.81,US,1681329697
41,kawalu,-7.3817,108.2082,29.558,98,100,0.8,ID,1681329697
42,magdeburg,52.1667,11.6667,28.266000000000002,93,100,4.17,DE,1681329697
43,karpogory,64.0019,44.4451,26.439999999999998,90,100,4.2,RU,1681329697
44,georgiyevka,43.0369,74.7114,28.117,81,0,4.0,KZ,1681329698
45,port alfred,-33.5906,26.891,29.157999999999998,85,100,0.45,ZA,1681329698
46,ilulissat,69.2167,-51.1,26.916000000000004,93,75,2.06,GL,1681329698
47,tasiilaq,65.6145,-37.6368,27.524,94,78,4.03,GL,1681329699
48,strathmore,51.0501,-113.3852,28.141000000000002,70,100,2.06,CA,1681329600
49,busselton,-33.65,115.3333,29.183999999999997,74,92,7.9,AU,1681329699
50,noumea,-22.2763,166.4572,29.926,99,100,1.48,NC,1681329545
51,fortuna,40.5982,-124.1573,28.518,60,11,5.36,US,1681329699
52,khatanga,71.9667,102.5,26.358999999999998,80,66,9.65,RU,1681329700
53,dunda,-8.1167,34.25,29.133999999999997,95,100,1.62,TZ,1681329700
54,henties bay,-22.116,14.2845,28.871,80,0,2.86,NA,1681329700
55,alofi,-19.0595,-169.9187,29.909,78,38,4.12,NU,1681329701
56,upernavik,72.7868,-56.1549,26.613,87,55,3.06,GL,1681329701
57,ouahigouya,13.5828,-2.4216,30.794999999999998,12,49,3.87,BF,1681329686
58,macherla,16.4833,79.4333,30.327999999999996,30,0,4.03,IN,1681329701
59,vaini,-21.2,-175.2,29.924,83,20,3.09,TO,1681329702
60,mandalgovi,45.7625,106.2708,27.591,28,74,2.04,MN,1681329702
61,hualmay,-11.0964,-77.6139,29.854000000000003,74,86,4.72,PE,1681329703
62,nalbari,26.4456,91.4354,29.913999999999998,25,0,2.17,IN,1681329703
63,albany,42.6001,-73.9662,29.874000000000002,34,2,5.93,US,1681329652
64,hartselle,34.4434,-86.9353,29.925,40,90,2.55,US,1681329703
65,marsabit,2.3284,37.9899,29.310000000000002,77,100,3.17,KE,1681329704
66,calama,-22.4667,-68.9333,29.742,15,0,9.26,CL,1681329647
67,evensk,61.95,159.2333,25.598,81,1,2.76,RU,1681329705
68,nantucket,41.2835,-70.0995,29.220999999999997,73,100,5.53,US,1681329705
69,majene,-3.5403,118.9707,29.922000000000004,83,100,1.07,ID,1681329705
70,sirur,18.8333,74.3833,30.514,26,100,7.1,IN,1681329706
71,chapais,49.7834,-74.8492,27.302999999999997,66,71,2.67,CA,1681329706
72,qaanaaq,77.484,-69.3632,25.699,81,99,0.58,GL,1681329707
73,tuy hoa,13.0833,109.3,29.901999999999997,85,100,1.15,VN,1681329707
74,lander,42.833,-108.7307,29.415,25,64,9.69,US,1681329707
75,mataura,-46.1927,168.8643,28.452999999999996,96,100,2.87,NZ,1681329708
76,krasnoshchekovo,51.6708,82.7289,27.502,49,100,5.51,RU,1681329708
77,kharan,28.5833,65.4167,30.025,15,0,1.08,PK,1681329708
78,torbay,47.6666,-52.7314,27.768,65,100,4.08,CA,1681329626
79,jamestown,42.097,-79.2353,29.671,40,20,12.86,US,1681329447
80,kapit,2.0167,112.9333,29.573,100,95,0.29,MY,1681329709
81,pergine valsugana,46.065,11.238,28.492,61,100,4.47,IT,1681329709
82,dikson,73.5069,80.5464,25.148,93,81,8.29,RU,1681329710
83,robe,-37.1833,139.75,28.879,87,100,7.57,AU,1681329710
84,hithadhoo,-0.6,73.0833,30.145,70,14,1.85,MV,1681329710
85,bengkulu,-3.8004,102.2655,29.701,90,66,1.82,ID,1681329711
86,la rioja,42.25,-2.5,27.702999999999996,98,100,2.06,ES,1681329711
87,nur,52.6683,22.3221,28.017000000000003,88,67,2.58,PL,1681329711
88,lebu,-37.6167,-73.65,28.892000000000003,80,100,3.68,CL,1681329711
89,boyolangu,-8.1181,111.8935,29.708,95,100,1.54,ID,1681329712
90,gamba,-2.65,10.0,29.937,83,84,1.5,GA,1681329712
91,saint-philippe,-21.3585,55.7679,29.792,83,37,1.23,RE,1681329712
92,clovis,36.8252,-119.7029,29.351999999999997,42,20,5.66,US,1681329556
93,pisco,-13.7,-76.2167,29.927,65,0,4.12,PE,1681329713
94,east london,-33.0153,27.9116,29.224,75,100,2.7,ZA,1681329491
95,bredasdorp,-34.5322,20.0403,28.704,80,100,2.01,ZA,1681329713
96,weligama,5.9667,80.4167,29.841,88,99,3.32,LK,1681329714
97,fort walton beach,30.4058,-86.6188,29.651,65,75,3.09,US,1681329585
98,hamilton,39.1834,-84.5333,29.945,30,1,2.68,US,1681329708
99,sabang,5.8933,95.3214,30.113,76,68,3.26,ID,1681329714
100,lompoc,34.6391,-120.4579,29.242,61,100,4.47,US,1681329715
101,cape town,-33.9258,18.4232,28.988,70,0,3.09,ZA,1681329609
102,hilo,19.7297,-155.09,29.9,76,75,4.63,US,1681329560
103,saint anthony,45.0205,-93.218,30.351999999999997,35,3,3.13,US,1681329627
104,nacala,-14.5428,40.6728,29.695999999999998,93,97,2.14,MZ,1681329716
105,tera,14.0078,0.7531,30.711000000000002,11,6,5.0,NE,1681329716
106,sao felix do xingu,-6.6447,-51.995,29.993000000000002,91,83,0.91,BR,1681329716
107,ancud,-41.8697,-73.8203,28.905,61,100,2.06,CL,1681329717
108,arman,59.7,150.1667,25.649,84,15,3.29,RU,1681329717
109,codrington,-38.2667,141.9667,28.796,94,94,3.05,AU,1681329718
110,ribeira grande,38.5167,-28.7,29.037,88,75,4.12,PT,1681329464
111,pierre,44.3683,-100.351,29.363,43,0,4.92,US,1681329718
112,olney,39.1532,-77.0669,30.244,29,0,7.72,US,1681329502
113,basco,20.4487,121.9702,29.839,85,99,11.43,PH,1681329719
114,necochea,-38.5473,-58.7368,28.796,52,89,8.35,AR,1681329659
115,novoagansk,61.9449,76.6625,25.5,90,100,5.02,RU,1681329719
116,tiksi,71.6872,128.8694,24.645,100,94,1.01,RU,1681329719
117,maceio,-9.6658,-35.7353,30.183999999999997,65,20,4.12,BR,1681329563
118,magole,-6.3667,37.3667,29.511000000000003,98,100,0.82,TZ,1681329720
119,amga,60.8953,131.9608,25.925,95,100,1.53,RU,1681329720
120,sambava,-14.2667,50.1667,29.770999999999997,88,37,2.02,MG,1681329721
121,nyurba,63.2842,118.3319,26.673000000000002,97,100,1.78,RU,1681329721
122,kaitangata,-46.2817,169.8464,28.445999999999998,92,100,5.02,NZ,1681329721
123,puranpur,28.5167,80.15,29.818,23,9,3.87,IN,1681329722
124,riyadh,24.6877,46.7219,29.323,65,100,4.78,SA,1681329715
125,makakilo city,21.3469,-158.0858,29.933,70,75,2.57,US,1681329722
126,atuona,-9.8,-139.0333,30.032999999999998,68,100,5.43,PF,1681329723
127,umm lajj,25.0213,37.2685,29.374000000000002,39,0,5.32,SA,1681329724
128,aksu,41.1231,80.2644,28.516000000000002,39,19,1.08,CN,1681329724
129,envira,-7.3,-70.2167,30.466,58,97,0.45,BR,1681329725
130,morant bay,17.8815,-76.4093,30.294,70,14,4.02,JM,1681329725
131,sandwick,60.0,-1.25,27.905,81,75,3.6,GB,1681329726
132,verkh-usugli,52.7,115.1667,26.608999999999998,90,75,1.4,RU,1681329726
133,santa rosa,14.3122,121.1114,29.913999999999998,94,100,1.85,PH,1681329726
134,port augusta,-32.5,137.7667,28.516000000000002,86,18,1.23,AU,1681329460
135,constitucion,-35.3333,-72.4167,28.952999999999996,75,98,3.0,CL,1681329727
136,bluff,-46.6,168.3333,28.470999999999997,85,100,9.37,NZ,1681329680
137,san vicente,-26.6167,-54.1333,30.143,39,0,0.94,AR,1681329728
138,uchiza,-8.4592,-76.4633,30.433999999999997,53,100,1.42,PE,1681329728
139,bethel,41.3712,-73.414,30.127999999999997,28,0,6.17,US,1681329517
140,cumberland,35.0502,-78.8664,30.076,22,0,6.17,US,1681329729
141,airai,-8.9266,125.4092,28.917,92,100,1.12,TL,1681329729
142,kaeo,-35.1,173.7833,29.018,92,45,1.95,NZ,1681329730
143,mingaora,34.7758,72.3625,29.1,50,32,3.15,PK,1681329731
144,nikolskoye,59.7035,30.7861,28.108999999999998,97,61,2.41,RU,1681329731
145,takoradi,4.8845,-1.7554,30.025,86,19,3.21,GH,1681329732
146,beringovskiy,63.05,179.3167,25.433,91,64,5.09,RU,1681329732
147,bambous virieux,-20.3428,57.7575,29.770999999999997,88,20,2.06,MU,1681329733
148,ponta do sol,32.6667,-17.1,29.155,65,7,3.28,PT,1681329733
149,anloga,5.7947,0.8973,30.157,81,10,4.29,GH,1681329734
150,flinders,-34.5833,150.8552,28.936,86,74,3.13,AU,1681329735
151,lorengau,-2.0226,147.2712,30.046,80,97,5.23,PG,1681329735
152,stephenville,32.2207,-98.2023,29.773000000000003,35,0,4.12,US,1681329607
153,uyemskiy,64.4743,40.8524,26.618000000000002,62,0,4.0,RU,1681329736
154,barcelos,41.5388,-8.6151,28.529000000000003,64,33,2.82,PT,1681329736
155,altay,47.8667,88.1167,26.825,61,10,3.43,CN,1681329737
156,sao joao da barra,-21.6403,-41.0511,29.919999999999998,78,100,5.1,BR,1681329737
157,longyearbyen,78.2186,15.6401,27.406,69,75,4.63,SJ,1681329726
158,katsuura,35.1333,140.3,28.612000000000002,68,100,9.76,JP,1681329540
159,begun,24.9833,75.0,30.011000000000003,24,36,2.32,IN,1681329738
160,grand gaube,-20.0064,57.6608,29.78,86,26,4.09,MU,1681329739
161,vardo,70.3705,31.1107,27.314,64,40,8.75,NO,1681329739
162,fairbanks,64.8378,-147.7164,26.904000000000003,82,75,2.06,US,1681329740
163,baglung,28.2719,83.5898,29.163,29,0,3.2,NP,1681329740
164,ahipara,-35.1667,173.1667,29.014999999999997,94,42,2.68,NZ,1681329740
165,bac lieu,9.285,105.7244,30.069,78,100,2.59,VN,1681329741
166,georgetown,5.4112,100.3354,30.212,89,20,1.03,MY,1681329742
167,provideniya,64.3833,-173.3,25.889,82,42,1.74,RU,1681329742
168,hermanus,-34.4187,19.2345,28.693,80,100,2.75,ZA,1681329743
169,puerto ayacucho,5.6639,-67.6236,30.639999999999997,47,89,1.08,VE,1681329743
170,manta,-0.95,-80.7333,30.403,70,40,2.57,EC,1681329743
171,muros,42.7762,-9.0603,28.487000000000002,68,6,5.84,ES,1681329744
172,eureka,40.8021,-124.1637,28.633999999999997,62,6,5.81,US,1681329744
173,sitka,57.0531,-135.33,27.508999999999997,93,100,2.06,US,1681329744
174,bathsheba,13.2167,-59.5167,30.249000000000002,58,40,8.23,BB,1681329745
175,houma,29.5958,-90.7195,29.426,85,75,6.17,US,1681329565
176,banda aceh,5.5577,95.3222,29.988999999999997,81,86,2.47,ID,1681329746
177,zeya,53.75,127.2667,27.012999999999998,91,100,1.47,RU,1681329746
178,verkhovazhye,60.7472,42.0465,27.407999999999998,95,93,4.02,RU,1681329747
179,sola,-13.8833,167.55,30.159,71,74,4.82,VU,1681329748
180,sorland,67.667,12.6934,28.006999999999998,85,100,8.37,NO,1681329748
181,sungaipenuh,-2.0833,101.3833,29.079,97,100,0.56,ID,1681329749
182,lasa,46.6166,10.7002,28.205000000000002,99,98,1.88,IT,1681329750
183,buckeye,33.3703,-112.5838,30.705000000000002,13,100,3.6,US,1681329750
184,guerrero negro,27.9769,-114.0611,29.125999999999998,60,97,7.52,MX,1681329751
185,namtsy,62.7161,129.6658,27.012999999999998,97,100,2.43,RU,1681329751
186,cherskiy,68.75,161.3,24.811,100,100,2.21,RU,1681329752
187,caravelas,-17.7125,-39.2481,29.861,83,38,3.18,BR,1681329752
188,taltal,-25.4,-70.4833,29.410000000000004,70,24,2.69,CL,1681329693
189,vuktyl,63.8567,57.3094,26.049,85,100,5.8,RU,1681329753
190,quepos,9.4236,-84.1652,30.363999999999997,64,27,2.96,CR,1681329734
191,bosaso,11.2842,49.1816,30.249000000000002,68,86,1.47,SO,1681329754
192,mount gambier,-37.8333,140.7667,28.820999999999998,94,76,3.48,AU,1681329755
193,liku,-0.7275,119.8922,29.743000000000002,92,94,1.33,ID,1681329755
194,korla,41.7597,86.1469,28.401999999999997,49,100,3.89,CN,1681329633
195,horsham,51.064,-0.3272,28.173000000000002,90,75,5.66,GB,1681329469
196,rapid city,44.0805,-103.231,29.229000000000003,35,0,3.58,US,1681329756
197,san policarpo,12.1791,125.5072,29.756999999999998,88,71,1.83,PH,1681329756
198,mar del plata,-38.0023,-57.5575,29.042,61,40,4.12,AR,1681329636
199,kabinda,-6.1333,24.4833,29.362000000000002,95,100,1.46,CD,1681329757
200,shillong,25.5689,91.8831,28.869,34,0,1.3,IN,1681329757
201,yenagoa,4.9247,6.2642,29.901999999999997,88,90,1.82,NG,1681329758
202,robertson,36.5167,-86.8667,29.919,25,0,2.06,US,1681329758
203,kavaratti,10.5669,72.642,30.177,74,8,2.78,IN,1681329758
204,macheng,31.1783,115.0319,29.255000000000003,88,94,0.76,CN,1681329758
205,san ramon,37.7799,-121.978,29.023000000000003,54,40,6.69,US,1681329730
206,mahajanga,-15.7167,46.3167,30.016000000000002,78,20,2.06,MG,1681329759
207,kavieng,-2.5744,150.7967,29.957,83,100,5.04,PG,1681329760
208,hovd,48.0056,91.6419,26.880000000000003,69,33,2.7,MN,1681329760
209,vila franca do campo,37.7167,-25.4333,28.838,84,100,1.45,PT,1681329641
210,shimoda,34.6667,138.95,28.487000000000002,77,13,4.25,JP,1681329761
211,richards bay,-28.783,32.0377,29.439,77,100,3.96,ZA,1681329761
212,hammerfest,70.6634,23.6821,27.54,60,0,6.69,NO,1681329761
213,kruisfontein,-34.0033,24.7314,28.863999999999997,58,100,1.4,ZA,1681329761
214,udachnyy,66.4167,112.4,25.318,90,92,2.4,RU,1681329762
215,bowen,-20.0167,148.2333,29.872000000000003,82,100,4.07,AU,1681329762
216,choix,26.7092,-108.3219,30.813,10,3,4.81,MX,1681329762
217,bozova,37.3625,38.5267,28.266000000000002,90,45,4.66,TR,1681329763
218,hasaki,35.7333,140.8333,28.383,55,82,8.27,JP,1681329763
219,debre birhan,9.6833,39.5333,28.481,71,100,2.33,ET,1681329763
220,mahenge,-8.6833,36.7167,29.076,97,88,0.69,TZ,1681329764
221,mahbubabad,17.6167,80.0167,30.299,32,61,2.79,IN,1681329764
222,hambantota,6.1241,81.1185,29.964999999999996,84,95,3.72,LK,1681329764
223,college,64.8569,-147.8028,26.762999999999998,82,100,2.06,US,1681329468
224,rocha,-34.4833,-54.3333,29.081,76,100,6.13,UY,1681329765
225,araouane,18.9048,-3.5265,30.241000000000003,8,99,3.72,ML,1681329766
226,tabou,4.423,-7.3528,29.992,86,8,2.26,CI,1681329766
227,pauini,-7.7136,-66.9764,30.276999999999997,70,98,0.21,BR,1681329766
228,mamallapuram,12.6264,80.1722,30.218,70,0,2.95,IN,1681329766
229,anadyr,64.75,177.4833,25.043,70,0,3.0,RU,1681329682
230,pevek,69.7008,170.3133,25.177,94,94,1.91,RU,1681329767
231,malazgirt,39.1427,42.5401,27.958999999999996,84,95,3.34,TR,1681329767
232,iracoubo,5.4802,-53.2011,30.058999999999997,75,58,4.19,GF,1681329768
233,lagoa,39.05,-27.9833,28.839,88,58,4.77,PT,1681329768
234,tessalit,20.1986,1.0114,30.357,8,100,2.66,ML,1681329735
235,radom,51.4025,21.1471,28.052,82,100,2.19,PL,1681329606
236,thinadhoo,0.5333,72.9333,30.151,72,12,2.69,MV,1681329769
237,narsaq,60.9167,-46.05,27.726999999999997,77,47,0.79,GL,1681329769
238,talnakh,69.4865,88.3972,24.604,97,100,2.54,RU,1681329769
239,tabuk,17.4189,121.4443,29.65,96,97,1.26,PH,1681329770
240,amapa,1.0,-52.0,30.125999999999998,85,68,0.77,BR,1681329770
241,surt,31.2089,16.5887,29.079,46,0,3.34,LY,1681329771
242,khandbari,27.3747,87.2039,29.241000000000003,29,0,2.18,NP,1681329771
243,penzance,50.1186,-5.5371,28.246,70,67,15.59,GB,1681329771
244,souillac,-20.5167,57.5167,29.736,88,20,2.06,MU,1681329772
245,zhigansk,66.7697,123.3711,24.81,100,100,1.39,RU,1681329772
246,camacha,33.0833,-16.3333,28.982999999999997,63,20,4.63,PT,1681329772
247,sharan,54.8167,54.0,28.195999999999998,45,50,1.43,RU,1681329773
248,bodden town,19.2833,-81.25,30.314999999999998,56,20,3.6,KY,1681329773
249,beloha,-25.1667,45.05,29.438,92,0,2.48,MG,1681329773
250,ngunguru,-35.6167,174.5,28.998,87,93,2.03,NZ,1681329773
251,coquimbo,-29.9533,-71.3436,29.095999999999997,80,93,3.57,CL,1681329476
252,clarence town,-32.5833,151.7833,28.860000000000003,94,92,1.37,AU,1681329774
253,preobrazheniye,42.9019,133.9064,27.5,59,2,3.45,RU,1681329774
254,yerbogachen,61.2767,108.0108,25.137999999999998,99,20,1.52,RU,1681329775
255,san lorenzo,-25.3333,-57.5333,30.57,52,40,4.47,PY,1681329775
256,aykhal,66.0,111.5,25.347,86,93,3.53,RU,1681329775
257,port elizabeth,-33.918,25.5701,29.031,82,0,3.09,ZA,1681329776
258,bubaque,11.2833,-15.8333,29.833,76,62,8.23,GW,1681329776
259,norman wells,65.282,-126.8329,27.217000000000002,55,75,5.66,CA,1681329776
260,petropavlovsk-kamchatskiy,53.0452,158.6483,27.348000000000003,75,75,5.0,RU,1681329777
261,taksimo,56.3444,114.8794,26.623,88,99,1.12,RU,1681329777
262,xining,36.6167,101.7667,28.127,42,100,1.87,CN,1681329750
263,goedereede,51.8175,3.9806,28.318,68,70,6.26,NL,1681329778
264,touros,-5.1989,-35.4608,30.047000000000004,79,87,7.3,BR,1681329523
265,hofn,64.2539,-15.2082,27.849,65,30,2.08,IS,1681329779
266,jacareacanga,-6.2222,-57.7528,30.217000000000002,76,94,0.67,BR,1681329779
267,yuancheng,36.652,107.7896,28.714999999999996,64,100,3.67,CN,1681329779
268,marinette,45.1,-87.6307,30.318,36,0,7.39,US,1681329779
269,vila velha,-20.3297,-40.2925,30.012,79,75,3.09,BR,1681329702
270,trincomalee,8.5711,81.2335,30.112000000000002,76,100,3.33,LK,1681329780
271,plettenberg bay,-34.0527,23.3716,28.909,58,100,1.05,ZA,1681329780
272,prince albert,53.2001,-105.7677,28.012,61,20,3.6,CA,1681329584
273,saint george,37.1041,-113.5841,30.048000000000002,18,0,9.26,US,1681329553
274,strezhevoy,60.7333,77.5889,26.375,93,100,5.02,RU,1681329781
275,windhoek,-22.5594,17.0832,29.625999999999998,21,11,2.06,NA,1681329782
276,faanui,-16.4833,-151.75,30.135,67,71,4.6,PF,1681329782
277,nishihara,26.1842,127.7558,29.475,88,75,4.63,JP,1681329783
278,dondo,-19.6094,34.7431,29.45,93,1,1.55,MZ,1681329783
279,la ronge,55.1001,-105.2842,28.127,33,40,7.2,CA,1681329635
280,la tijera,19.9,-104.4,30.108999999999998,19,45,4.21,MX,1681329784
281,grand-lahou,5.1367,-5.0242,30.041000000000004,83,11,4.4,CI,1681329784
282,kiama,-34.6833,150.8667,28.982,89,90,2.24,AU,1681329785
283,roebourne,-20.7833,117.1333,30.226,68,100,1.44,AU,1681329786
284,kodiak,57.79,-152.4072,27.713,62,80,5.75,US,1681329786
285,sinnamary,5.3833,-52.95,30.063,76,69,4.46,GF,1681329786
286,leningradskiy,69.3833,178.4167,25.301,95,100,2.03,RU,1681329787
287,srivardhan,18.0333,73.0167,30.085,72,100,4.06,IN,1681329787
288,wetaskiwin,52.9668,-113.3687,27.986,71,6,2.14,CA,1681329788
289,ust-maya,60.4167,134.5333,25.772000000000002,97,75,1.79,RU,1681329788
290,lethem,3.3803,-59.7968,30.781,37,93,5.73,GY,1681329788
291,bandarbeyla,9.4942,50.8122,30.129,75,94,4.27,SO,1681329789
292,hinesville,31.8469,-81.5959,29.925,50,40,6.17,US,1681329600
293,linhares,-19.3911,-40.0722,30.011000000000003,61,83,4.25,BR,1681329620
294,puli,23.9664,120.9695,29.255000000000003,77,10,1.63,TW,1681329790
295,prado,-17.3411,-39.2208,29.8,90,22,3.06,BR,1681329764
296,tuatapere,-46.1333,167.6833,28.427,95,100,2.71,NZ,1681329791
297,hohhot,40.8106,111.6522,27.831,56,83,2.0,CN,1681329791
298,pangnirtung,66.1451,-65.7125,26.415,62,20,1.54,CA,1681329791
299,mezen,65.8522,44.24,25.778,84,2,3.47,RU,1681329792
300,garissa,-0.4536,39.6401,30.115,67,100,6.04,KE,1681329792
301,ustka,54.5805,16.8619,27.962,80,96,4.18,PL,1681329792
302,burgeo,47.6167,-57.6152,27.636000000000003,89,100,4.02,CA,1681329720
303,los llanos de aridane,28.6585,-17.9182,29.101,77,20,8.23,ES,1681329793
304,bambanglipuro,-7.95,110.2833,29.798000000000002,89,100,1.48,ID,1681329793
305,brae,60.3964,-1.353,27.905,83,72,7.4,GB,1681329794
306,san roque,36.2107,-5.3842,29.061,72,75,5.14,ES,1681329736
307,katangli,51.7102,143.2326,27.143,97,100,5.87,RU,1681329794
308,genhe,50.7833,121.5167,26.591,92,24,1.33,CN,1681329795
309,kurumkan,54.3,110.3,27.038,78,100,1.22,RU,1681329795
310,tarnogskiy gorodok,60.4997,43.5761,27.477999999999998,95,99,2.72,RU,1681329796
311,mackenzie,55.2999,-123.1698,27.627,70,0,4.63,CA,1681329796
312,port blair,11.6667,92.75,29.99,79,54,2.11,IN,1681329797
313,tura,25.5198,90.2201,29.720999999999997,28,1,1.85,IN,1681329797
314,tual,-5.6667,132.75,30.157999999999998,73,86,3.03,ID,1681329797
315,saskylakh,71.9167,114.0833,25.982,90,100,7.47,RU,1681329798
316,isangel,-19.55,169.2667,30.012,83,8,2.84,VU,1681329798
317,harper,4.375,-7.7169,29.975,85,5,1.98,LR,1681329798
318,rockport,28.0206,-97.0544,29.917,100,0,5.14,US,1681329799
319,luang prabang,19.8856,102.1347,29.762999999999998,37,59,0.27,LA,1681329800
320,bhag,29.0415,67.8239,30.438,19,0,2.88,PK,1681329801
321,tabas,33.5959,56.9244,29.927,15,11,3.09,IR,1681329801
322,scarborough,54.2797,-0.4044,27.991000000000003,86,80,2.68,GB,1681329755
323,cockburn town,21.4612,-71.1419,29.895,76,10,5.05,TC,1681329802
324,quatre cocos,-20.2078,57.7625,29.764,83,34,3.11,MU,1681329802
325,nabire,-3.3667,135.4833,29.656,89,66,1.29,ID,1681329803
326,rio gallegos,-51.6226,-69.2181,28.118000000000002,42,0,3.6,AR,1681329803
327,petropavl,54.8753,69.1628,27.7,60,5,4.0,KZ,1681329804
328,berdigestyakh,62.0989,126.6992,26.689999999999998,97,100,1.17,RU,1681329804
329,klyuchi,52.2667,79.1667,27.748,40,100,6.92,RU,1681329804
330,araceli,10.5529,119.9913,29.962,82,100,2.96,PH,1681329805
331,esperance,-33.8667,121.9,29.083,70,0,3.54,AU,1681329805
332,najran,17.4924,44.1277,30.051,41,26,0.74,SA,1681329806
333,kenai,60.5544,-151.2583,27.49,92,39,1.77,US,1681329806
334,boulsa,12.6675,-0.5758,30.744,11,60,4.19,BF,1681329807
335,marrakesh,31.6315,-8.0083,29.819,31,0,4.12,MA,1681329624
336,concepcion,-36.827,-73.0498,29.004,82,75,4.12,CL,1681329808
337,kaoma,-14.7833,24.8,29.279000000000003,82,98,2.27,ZM,1681329808
338,shihezi,44.3,86.0333,28.335,46,24,0.69,CN,1681329809
339,cabo san lucas,22.8909,-109.9124,30.516000000000002,33,99,4.62,MX,1681329630
340,port-gentil,-0.7193,8.7815,30.113,89,40,3.09,GA,1681329810
341,jumla,29.2747,82.1838,28.194,43,4,1.84,NP,1681329785
342,shenzhen,22.5455,114.0683,29.708999999999996,91,95,3.45,CN,1681329803
343,novobirilyussy,56.9514,90.6661,27.117,75,100,5.46,RU,1681329811
344,rio grande,-32.035,-52.0986,29.621,84,69,6.3,BR,1681329811
345,aksarka,66.5606,67.7975,24.429,97,11,1.95,RU,1681329812
346,colchester,51.8892,0.9042,28.044999999999998,89,96,5.08,GB,1681329710
347,turukhansk,65.8167,87.9833,24.296,100,100,1.33,RU,1681329812
348,termoli,41.9888,14.9895,28.543,76,7,2.97,IT,1681329813
349,roma,43.2128,-75.4557,29.8,41,0,2.68,US,1681329618
350,gunjur,13.2019,-16.7339,29.719,69,0,2.57,GM,1681329813
351,tecoanapa,16.5167,-98.75,30.393,50,0,5.89,MX,1681329814
352,dongying,37.4564,118.4856,28.82,55,100,3.45,CN,1681329814
353,macusani,-14.0833,-70.4333,28.133,67,100,3.33,PE,1681329814
354,chicama,-7.8447,-79.1469,30.244999999999997,66,95,4.47,PE,1681329815
355,avera,33.194,-82.5271,29.901,28,2,3.42,US,1681329815
356,soyo,-6.1349,12.3689,29.825,90,100,4.25,AO,1681329815
357,kyra,49.5776,111.9753,27.244999999999997,72,100,1.41,RU,1681329816
358,padang,-0.9492,100.3543,29.718,87,96,0.98,ID,1681329553
359,stykkisholmur,65.0757,-22.7297,27.581,75,100,5.67,IS,1681329817
360,pringsewu,-5.3582,104.9744,29.589999999999996,94,54,1.66,ID,1681329817
361,sunbury,-37.5833,144.7333,28.698,95,75,0.0,AU,1681329818
362,severo-yeniseyskiy,60.3725,93.0408,26.731,90,100,6.23,RU,1681329818
363,nome,64.5011,-165.4064,25.546,62,0,3.49,US,1681329818
364,coihaique,-45.5752,-72.0662,28.649,43,0,3.09,CL,1681329764
365,qixingtai,30.4135,111.8874,29.202999999999996,77,23,1.0,CN,1681329819
366,oroquieta,8.4858,123.8044,29.750999999999998,86,0,1.08,PH,1681329819
367,west bay,19.3667,-81.4167,30.319,73,20,3.6,KY,1681329739
368,charters towers,-20.1,146.2667,29.506999999999998,95,69,2.95,AU,1681329820
369,slave lake,55.2834,-114.769,28.014,42,0,5.66,CA,1681329621
370,namatanai,-3.6667,152.4333,29.814,90,100,2.71,PG,1681329821
371,dalbandin,28.8947,64.4101,29.919999999999998,16,0,0.71,PK,1681329821
372,komsomolskiy,40.4272,71.7189,28.555,87,100,3.09,UZ,1681329821
373,atambua,-9.1061,124.8925,29.619999999999997,90,100,0.32,ID,1681329822
374,iskateley,67.6803,53.1512,24.875999999999998,100,43,2.31,RU,1681329822
375,darhan,49.4867,105.9228,27.426,78,78,8.27,MN,1681329822
376,jieshi,22.8134,115.8257,29.391000000000002,76,100,6.97,CN,1681329823
377,ostersund,63.1792,14.6357,27.793,100,100,7.15,SE,1681329608
378,ushibuka,32.1906,130.0228,28.619999999999997,53,95,2.57,JP,1681329823
379,zaranj,30.9667,61.8833,29.713,10,53,3.75,AF,1681329823
380,zlobin,45.2924,14.6541,28.181,61,0,2.57,HR,1681329824
381,mount isa,-20.7333,139.5,29.601999999999997,60,40,2.57,AU,1681329680
382,puerto colombia,10.9878,-74.9547,30.22,81,100,8.67,CO,1681329824
383,santiago del estero,-27.7951,-64.2615,30.064999999999998,57,31,5.75,AR,1681329728
384,mountain home,43.133,-115.6912,28.286,37,40,12.35,US,1681329825
385,clyde river,70.4692,-68.5914,25.927999999999997,78,100,12.86,CA,1681329825
386,meulaboh,4.1363,96.1285,29.824,88,82,1.87,ID,1681329826
387,nicoya,10.1483,-85.452,30.957,28,7,3.61,CR,1681329770
388,warrington,53.3925,-2.5802,28.036,82,75,10.29,GB,1681329800
389,vila,42.0304,-8.1588,27.863999999999997,74,6,1.38,PT,1681329827
390,yarada,17.65,83.2667,30.191000000000003,59,0,2.3,IN,1681329827
391,tsabong,-26.0217,22.401,29.6,24,43,3.6,BW,1681329827
392,srono,-8.4,114.2666,29.701999999999998,97,100,1.23,ID,1681329828
393,sotnikovo,51.8845,107.4791,27.419999999999998,69,75,10.0,RU,1681329828
394,arlit,18.7369,7.3853,30.133,10,54,6.37,NE,1681329828
395,jinchang,38.4953,102.1739,28.073,46,6,6.83,CN,1681329828
396,kuching,1.55,110.3333,30.094,88,20,1.03,MY,1681329638
397,tianpeng,30.9866,103.9393,29.241000000000003,91,100,3.66,CN,1681329829
398,sayyan,15.1718,44.3244,29.022000000000002,56,49,0.34,YE,1681329830
399,nanzhang,31.7765,111.8386,29.04,86,9,1.94,CN,1681329830
400,marsh harbour,26.5412,-77.0636,29.569,83,100,11.87,BS,1681329830
401,nadym,65.5333,72.5167,24.613,99,9,3.53,RU,1681329831
402,saint-joseph,-21.3667,55.6167,29.736,86,19,1.55,RE,1681329831
403,yarmouth,41.7057,-70.2286,29.645999999999997,30,0,5.14,US,1681329831
404,sobolevo,54.4299,31.8996,28.335,60,100,4.01,RU,1681329832
405,bud,39.447,-86.1758,29.887999999999998,33,5,5.57,US,1681329832
406,nambucca heads,-30.65,153.0,28.814999999999998,85,20,2.36,AU,1681329832
407,riberalta,-10.9833,-66.1,30.526,62,40,3.09,BO,1681329833
408,kletskaya,49.3145,43.0584,28.538999999999998,62,100,8.82,RU,1681329833
409,half moon bay,37.4636,-122.4286,28.982999999999997,63,40,10.8,US,1681329620
410,mayumba,-3.432,10.6554,30.107999999999997,80,100,3.4,GA,1681329833
411,shingu,33.7333,135.9833,28.28,84,0,3.25,JP,1681329834
412,hami,42.8,93.45,28.314,35,18,3.42,CN,1681329834
413,varzelandia,-15.7014,-44.0275,30.024,50,100,1.41,BR,1681329834
414,laurel,39.0993,-76.8483,30.302999999999997,29,0,7.72,US,1681329548
415,namibe,-15.1961,12.1522,29.583999999999996,77,34,6.73,AO,1681329835
416,el carrizo,24.0261,-106.8814,30.297000000000004,31,2,4.0,MX,1681329835
417,faya,18.3851,42.4509,29.121,55,5,3.32,SA,1681329836
418,monte patria,-30.6919,-70.9467,29.931,37,66,4.52,CL,1681329836
419,anzio,41.4853,12.6179,28.784,90,5,5.21,IT,1681329836
420,vachi,42.072,47.2151,28.297000000000004,60,100,3.2,RU,1681329837
421,rancho palos verdes,33.7445,-118.387,29.042,91,100,4.63,US,1681329837
422,poum,-20.2333,164.0167,29.944,77,5,3.4,NC,1681329837
423,carmo do rio claro,-20.9719,-46.1189,29.508999999999997,88,100,0.55,BR,1681329838
424,salym,60.0625,71.4789,27.085,97,100,3.53,RU,1681329838
425,jackson,42.4165,-122.8345,28.267000000000003,44,75,4.12,US,1681329838
426,olafsvik,64.8945,-23.7142,27.731,73,100,3.88,IS,1681329838
427,siilinjarvi,63.0833,27.6667,27.716,64,0,6.71,FI,1681329839
428,kharp,66.8014,65.8081,24.866,94,12,3.33,RU,1681329839
429,chhapar,27.8167,74.4,30.211000000000002,26,100,2.19,IN,1681329840
430,mao,39.8885,4.2658,28.945999999999998,82,20,4.12,ES,1681329840
431,batagay-alyta,67.8006,130.4114,25.063,94,52,2.3,RU,1681329840
432,te anau,-45.4167,167.7167,28.335,95,100,1.77,NZ,1681329841
433,grootfontein,-19.5667,18.1167,29.191000000000003,63,58,1.54,NA,1681329841
434,los cedrales,-25.65,-54.7,30.531,51,97,2.62,PY,1681329842
435,srednekolymsk,67.45,153.6833,25.511000000000003,92,100,1.92,RU,1681329842
436,bonavista,48.6499,-53.1147,27.593,82,100,4.14,CA,1681329843
437,avigliano,40.7329,15.72,28.074,82,13,2.76,IT,1681329843
438,konstantinovka,49.6167,127.9833,27.357,62,100,3.55,RU,1681329844
439,luderitz,-26.6481,15.1594,28.788,78,33,3.99,NA,1681329590
440,hongjiang,27.11,109.9956,29.389999999999997,95,100,0.56,CN,1681329845
441,wanaka,-44.7,169.15,28.432,89,100,1.58,NZ,1681329760
442,maltahohe,-24.8333,16.9833,29.214,18,0,3.94,NA,1681329845
443,bitung,1.4451,125.1824,29.762,92,97,0.93,ID,1681329846
444,bend,44.0582,-121.3153,27.814999999999998,48,40,7.2,US,1681329602
445,winneba,5.3511,-0.6231,30.056,84,36,3.58,GH,1681329846
446,shelburne,44.0787,-80.2041,29.776,30,0,9.04,CA,1681329847
447,prince rupert,54.3161,-130.3201,27.82,81,100,4.12,CA,1681329847
448,ucluelet,48.9329,-125.5528,28.232,80,0,2.24,CA,1681329622
449,mogadishu,2.0371,45.3438,30.135,77,100,4.77,SO,1681329848
450,aklavik,68.2191,-135.0107,25.615,55,75,3.09,CA,1681329848
451,wajima,37.4,136.9,28.433,63,0,9.32,JP,1681329849
452,kramat,-8.1311,113.4499,29.651,98,80,1.03,ID,1681329849
453,port lincoln,-34.7333,135.8667,28.679000000000002,77,3,1.44,AU,1681329764
454,portland,45.5234,-122.6762,28.224,83,99,3.13,US,1681329679
455,moroni,-11.7022,43.2551,30.000999999999998,78,77,1.11,KM,1681329850
456,douglas,41.3,-96.167,30.368000000000002,32,0,10.8,US,1681329628
457,domanivka,47.6319,30.9885,28.391000000000002,87,100,1.16,UA,1681329850
458,abu kamal,34.4506,40.9171,28.863,48,96,10.41,SY,1681329851
459,gorontalo,0.5412,123.0595,29.733999999999998,99,45,0.8,ID,1681329852
460,guane,22.2025,-84.0875,30.276999999999997,50,16,6.08,CU,1681329852
461,cayeli,41.0923,40.7292,28.386000000000003,97,100,1.54,TR,1681329852
462,paamiut,61.994,-49.6678,27.305,57,11,2.2,GL,1681329853
463,alice springs,-23.7,133.8833,29.589999999999996,40,100,3.6,AU,1681329689
464,lima,-12.0432,-77.0282,30.029000000000003,57,40,4.63,PE,1681329749
465,cabanas,22.9758,-82.9219,30.002999999999997,64,75,3.67,CU,1681329854
466,stolin,51.8912,26.846,28.139,96,100,4.27,BY,1681329854
467,cururupu,-1.8283,-44.8683,30.125,71,82,2.09,BR,1681329854
468,naron,43.5167,-8.1528,28.538,79,40,5.48,ES,1681329855
469,chernyshevskiy,63.0128,112.4714,25.511000000000003,98,93,1.8,RU,1681329855
470,honiara,-9.4333,159.95,29.826,87,17,1.06,SB,1681329856
471,callaguip,18.0714,120.4867,29.963,80,14,0.75,PH,1681329856
472,iqaluit,63.7506,-68.5145,26.7,63,75,0.0,CA,1681329621
473,san patricio,28.017,-97.5169,30.046,38,0,2.55,US,1681329857
474,pacific grove,36.6177,-121.9166,28.947000000000003,69,0,7.72,US,1681329606
475,praia da vitoria,38.7333,-27.0667,29.029000000000003,88,40,1.91,PT,1681329651
476,miramar,25.9873,-80.2323,29.716,94,100,1.79,US,1681329851
477,bereda,43.2686,-7.5406,27.879,86,12,1.29,ES,1681329859
478,red bluff,40.1785,-122.2358,29.169999999999998,27,0,6.17,US,1681329859
479,neyshabur,36.2133,58.7958,29.562,19,47,5.53,IR,1681329860
480,acapulco,16.8634,-99.8901,30.669,34,29,4.22,MX,1681329645
481,khorramshahr,30.4397,48.1664,29.413,94,100,8.75,IR,1681329860
482,nenjiang,49.1833,125.2167,27.112000000000002,72,8,2.85,CN,1681329861
483,brighton,50.8284,-0.1395,28.220999999999997,88,96,11.62,GB,1681329861
484,volga,57.9516,38.3879,28.083999999999996,56,21,1.99,RU,1681329862
485,loa janan,-0.583,117.095,29.627,99,99,0.47,ID,1681329862
486,lyubymivka,46.8106,33.5686,28.223000000000003,90,100,4.95,UA,1681329863
487,thurso,58.5927,-3.5259,27.929000000000002,77,100,12.8,GB,1681329627
488,tautira,-17.7333,-149.15,30.022000000000002,73,19,3.25,PF,1681329863
489,unai,-16.3575,-46.9061,30.127,58,98,2.04,BR,1681329864
490,kindu,-2.95,25.95,29.525,84,100,0.97,CD,1681329865
491,eldorado,-23.7869,-54.2836,30.048000000000002,73,9,1.17,BR,1681329852
492,onguday,50.75,86.15,26.854000000000003,80,33,1.49,RU,1681329865
493,cristalina,-16.7686,-47.6136,29.579,77,83,0.89,BR,1681329866
494,athabasca,54.7169,-113.2854,28.338,42,37,4.78,CA,1681329604
495,kamina,-8.7386,24.9906,29.137,97,100,1.55,CD,1681329866
496,puerto escondido,15.85,-97.0667,30.461000000000002,66,40,6.17,MX,1681329867
497,galveston,29.3669,-94.9669,29.985000000000003,54,0,5.66,US,1681329867
498,indramayu,-6.3264,108.32,29.791000000000004,84,100,2.78,ID,1681329868
499,dubbo,-32.25,148.6167,28.622000000000003,88,100,4.12,AU,1681329868
500,bhabua,25.05,83.6167,30.127,17,0,2.26,IN,1681329868
501,chimoio,-19.1164,33.4833,29.037,97,39,0.75,MZ,1681329868
502,aswan,24.0934,32.907,29.375999999999998,24,0,5.14,EG,1681329869
503,dargaville,-35.9333,173.8833,28.915,94,58,1.12,NZ,1681329869
504,ostrovnoy,68.0531,39.5131,26.532,78,100,1.57,RU,1681329869
505,cervo,43.6702,-7.4101,28.424,72,32,7.47,ES,1681329870
506,diamantino,-14.4086,-56.4461,30.151,72,82,3.06,BR,1681329871
507,saint-pierre,-21.3393,55.4781,29.797000000000004,83,0,1.54,RE,1681329871
508,ciudad guayana,8.3533,-62.6528,30.998,26,99,5.17,VE,1681329871
509,batemans bay,-35.7167,150.1833,28.875999999999998,93,94,1.09,AU,1681329872
510,bayir,37.2687,28.2167,28.144,82,7,1.21,TR,1681329872
511,inhambane,-23.865,35.3833,29.514,83,0,0.0,MZ,1681329873
512,howell,42.6073,-83.9294,29.996,35,0,7.2,US,1681329873
513,new plymouth,-39.0667,174.0833,28.845999999999997,1,15,4.77,NZ,1681329874
514,mount hagen,-5.8581,144.2274,28.831,99,100,0.33,PG,1681329874
515,antalaha,-14.9003,50.2788,29.933,80,83,1.94,MG,1681329874
516,hobyo,5.3505,48.5268,30.151,74,100,5.4,SO,1681329874
517,margate,51.3813,1.3862,28.110000000000003,88,100,1.79,GB,1681329761
518,nhulunbuy,-12.2333,136.7667,29.849,94,40,0.51,AU,1681329875
519,fort frances,48.5999,-93.4003,29.427,32,0,1.54,CA,1681329875
520,husavik,66.0449,-17.3389,27.423000000000002,95,100,1.03,IS,1681329876
521,suntar,62.1444,117.6319,26.159,99,92,1.56,RU,1681329876
522,weilheim,47.8333,11.15,28.232999999999997,92,100,4.53,DE,1681329876
523,port keats,-14.25,129.55,29.912,85,100,1.9,AU,1681329877
524,bulawayo,-20.15,28.5833,28.78,82,0,4.23,ZW,1681329629
525,mehamn,71.0357,27.8492,27.112000000000002,69,0,6.69,NO,1681329878
526,tiznit,29.5833,-9.5,29.314999999999998,42,0,1.92,MA,1681329878
527,atamanovka,51.93,113.63,26.738999999999997,91,53,0.63,RU,1681329878
528,san rafael del sur,11.8485,-86.4384,30.769,28,27,3.58,NI,1681329879
529,aljezur,37.3191,-8.8033,28.768,88,100,5.45,PT,1681329879
530,san cristobal,7.7669,-72.225,30.125,79,100,1.45,VE,1681329636
531,lata,40.1629,-8.3327,28.582,69,1,2.87,PT,1681329880
532,apache junction,33.4151,-111.5496,30.636000000000003,11,0,3.58,US,1681329880
533,nekhayevskiy,50.4106,41.7561,28.357,62,99,7.21,RU,1681329880
534,goundam,16.4145,-3.6708,30.43,11,80,7.2,ML,1681329880
535,petropavlovka,50.6114,105.3196,27.193,73,100,5.01,RU,1681329881
536,vestmanna,62.1564,-7.1664,27.966,76,75,6.17,FO,1681329881
537,bonga,7.2833,36.2333,28.901,97,100,0.64,ET,1681329881
538,pudozh,61.8099,36.5345,27.182,88,59,3.92,RU,1681329882
539,kayankulam,9.1833,76.5,29.976999999999997,83,0,0.49,IN,1681329882
540,dicabisagan,17.0818,122.4157,29.804000000000002,92,100,1.95,PH,1681329882
541,abu samrah,35.3029,37.1841,28.296,82,94,9.32,SY,1681329883
542,pemangkat,1.1667,108.9667,29.793,87,98,1.37,ID,1681329883
543,aktas,49.7789,72.9608,27.201,45,53,4.4,KZ,1681329883
544,mianyang,31.4593,104.7542,29.204,84,100,2.86,CN,1681329884
545,satao,40.7418,-7.7329,28.088,75,2,2.84,PT,1681329884
546,saint-denis,48.9167,2.3333,28.246,69,40,8.75,FR,1681329884
547,kantabanji,20.4833,82.9167,30.317,16,4,0.57,IN,1681329885
548,kanungu,-0.9575,29.7897,29.058999999999997,78,100,1.77,UG,1681329885
549,quarai,-30.3875,-56.4514,30.256999999999998,52,50,5.43,BR,1681329885
550,kargasok,59.0556,80.8572,27.363,97,100,5.58,RU,1681329886
551,yar-sale,66.8333,70.8333,24.706,98,25,4.59,RU,1681329886
552,zyryanka,65.75,150.85,25.151,99,92,1.12,RU,1681329886
553,walvis bay,-22.9575,14.5053,28.954,72,0,4.98,NA,1681329592
554,mormugao,15.4,73.8,29.976,81,85,2.78,IN,1681329887
555,morgan city,29.6994,-91.2068,29.514999999999997,68,40,7.2,US,1681329887
556,nara,34.6851,135.8049,28.248,72,0,0.42,JP,1681329607
557,sioux lookout,50.1001,-91.917,29.019,36,40,2.57,CA,1681329887
558,sapa,5.1544,120.3241,29.977999999999998,80,8,2.09,PH,1681329888
559,sept-iles,50.2001,-66.3821,28.615,61,75,4.92,CA,1681329885
560,ejura,7.3856,-1.3562,30.269,50,49,2.68,GH,1681329888
